{"URL_xls": "./geocoded_files/customers_data (300).xls", "type": "FeatureCollection", "features": [{"geometry": {"type": "Point", "coordinates": [-122.437582, 37.734031]}, "type": "Feature", "properties": {"city": "San Francisco", "name": "Customer  1", "zip": "94131", "sales": "131.08", "state": "CA", "cust_id": "1", "location": "100 Hamerton Ave San Francisco, CA 94131", "address": "100 Hamerton Ave", "zip_code": "94131", "store_id": "2"}}, {"geometry": {"type": "Point", "coordinates": [-122.437798, 37.772127]}, "type": "Feature", "properties": {"city": "San Francisco", "name": "Customer  10", "zip": "94117", "sales": "36.53", "state": "CA", "cust_id": "10", "location": "1050 Page St San Francisco, CA 94117", "address": "1050 Page St", "zip_code": "94117", "store_id": "1"}}, {"geometry": {"type": "Point", "coordinates": [-122.487283, 37.78656]}, "type": "Feature", "properties": {"city": "San Francisco", "name": "Customer  100", "zip": "94121", "sales": "192.06", "state": "CA", "cust_id": "100", "location": "150 27th Ave San Francisco, CA 94121", "address": "150 27th Ave", "zip_code": "94121", "store_id": "1"}}, {"geometry": {"type": "Point", "coordinates": [-122.423304, 37.747079]}, "type": "Feature", "properties": {"city": "San Francisco", "name": "Customer  101", "zip": "94110", "sales": "12.18", "state": "CA", "cust_id": "101", "location": "150 27th St San Francisco, CA 94110", "address": "150 27th St", "zip_code": "94110", "store_id": "2"}}, {"geometry": {"type": "Point", "coordinates": [-122.437382, 37.731839]}, "type": "Feature", "properties": {"city": "San Francisco", "name": "Customer  102", "zip": "94131", "sales": "79.1", "state": "CA", "cust_id": "102", "location": "150 Acadia St San Francisco, CA 94131", "address": "150 Acadia St", "zip_code": "94131", "store_id": "2"}}, {"geometry": {"type": "Point", "coordinates": [-122.4058, 37.713462]}, "type": "Feature", "properties": {"city": "San Francisco", "name": "Customer  103", "zip": "94134", "sales": "178", "state": "CA", "cust_id": "103", "location": "150 Arleta Ave San Francisco, CA 94134", "address": "150 Arleta Ave", "zip_code": "94134", "store_id": "2"}}, {"geometry": {"type": "Point", "coordinates": [-122.447531, 37.77417]}, "type": "Feature", "properties": {"city": "San Francisco", "name": "Customer  104", "zip": "94117", "sales": "19.8", "state": "CA", "cust_id": "104", "location": "150 Ashbury St San Francisco, CA 94117", "address": "150 Ashbury St", "zip_code": "94117", "store_id": "1"}}, {"geometry": {"type": "Point", "coordinates": [-122.440145, 37.71857]}, "type": "Feature", "properties": {"city": "San Francisco", "name": "Customer  105", "zip": "94112", "sales": "25.15", "state": "CA", "cust_id": "105", "location": "150 Bertita St San Francisco, CA 94112", "address": "150 Bertita St", "zip_code": "94112", "store_id": "2"}}, {"geometry": {"type": "Point", "coordinates": [-122.418188, 37.741271]}, "type": "Feature", "properties": {"city": "San Francisco", "name": "Customer  106", "zip": "94110", "sales": "155.03", "state": "CA", "cust_id": "106", "location": "150 Bonview St San Francisco, CA 94110", "address": "150 Bonview St", "zip_code": "94110", "store_id": "2"}}, {"geometry": {"type": "Point", "coordinates": [-122.428041, 37.733379]}, "type": "Feature", "properties": {"city": "San Francisco", "name": "Customer  107", "zip": "94112", "sales": "50.29", "state": "CA", "cust_id": "107", "location": "150 Bosworth St San Francisco, CA 94112", "address": "150 Bosworth St", "zip_code": "94112", "store_id": "2"}}, {"geometry": {"type": "Point", "coordinates": [-122.398143, 37.793426]}, "type": "Feature", "properties": {"city": "San Francisco", "name": "Customer  108", "zip": "94111", "sales": "10.69", "state": "CA", "cust_id": "108", "location": "150 California St San Francisco, CA 94111", "address": "150 California St", "zip_code": "94111", "store_id": "1"}}, {"geometry": {"type": "Point", "coordinates": [-122.440011, 37.804542]}, "type": "Feature", "properties": {"city": "San Francisco", "name": "Customer  109", "zip": "94123", "sales": "11.78", "state": "CA", "cust_id": "109", "location": "150 Cervantes Blvd San Francisco, CA 94123", "address": "150 Cervantes Blvd", "zip_code": "94123", "store_id": "1"}}, {"geometry": {"type": "Point", "coordinates": [-122.42135, 37.745202]}, "type": "Feature", "properties": {"city": "San Francisco", "name": "Customer  11", "zip": "94110", "sales": "10.49", "state": "CA", "cust_id": "11", "location": "108 Tiffany Ave San Francisco, CA 94110", "address": "108 Tiffany Ave", "zip_code": "94110", "store_id": "2"}}, {"geometry": {"type": "Point", "coordinates": [-122.460543, 37.783078]}, "type": "Feature", "properties": {"city": "San Francisco", "name": "Customer  110", "zip": "94118", "sales": "27.62", "state": "CA", "cust_id": "110", "location": "150 Clement St San Francisco, CA 94118", "address": "150 Clement St", "zip_code": "94118", "store_id": "2"}}, {"geometry": {"type": "Point", "coordinates": [-122.427953, 37.749228]}, "type": "Feature", "properties": {"city": "San Francisco", "name": "Customer  111", "zip": "94114", "sales": "25.64", "state": "CA", "cust_id": "111", "location": "150 Clipper St San Francisco, CA 94114", "address": "150 Clipper St", "zip_code": "94114", "store_id": "1"}}, {"geometry": {"type": "Point", "coordinates": [-122.455533, 37.782651]}, "type": "Feature", "properties": {"city": "San Francisco", "name": "Customer  112", "zip": "94118", "sales": "1.68", "state": "CA", "cust_id": "112", "location": "150 Commonwealth Ave San Francisco, CA 94118", "address": "150 Commonwealth Ave", "zip_code": "94118", "store_id": "1"}}, {"geometry": {"type": "Point", "coordinates": [-122.435339, 37.728286]}, "type": "Feature", "properties": {"city": "San Francisco", "name": "Customer  113", "zip": "94112", "sales": "27.72", "state": "CA", "cust_id": "113", "location": "150 Cotter St San Francisco, CA 94112", "address": "150 Cotter St", "zip_code": "94112", "store_id": "2"}}, {"geometry": {"type": "Point", "coordinates": [-122.412627, 37.728419]}, "type": "Feature", "properties": {"city": "San Francisco", "name": "Customer  114", "zip": "94134", "sales": "25.34", "state": "CA", "cust_id": "114", "location": "150 Dartmouth St San Francisco, CA 94134", "address": "150 Dartmouth St", "zip_code": "94134", "store_id": "2"}}, {"geometry": {"type": "Point", "coordinates": [-122.440943, 37.725721]}, "type": "Feature", "properties": {"city": "San Francisco", "name": "Customer  115", "zip": "94112", "sales": "28.91", "state": "CA", "cust_id": "115", "location": "150 Delano Ave San Francisco, CA 94112", "address": "150 Delano Ave", "zip_code": "94112", "store_id": "2"}}, {"geometry": {"type": "Point", "coordinates": [-122.427843, 37.726515]}, "type": "Feature", "properties": {"city": "San Francisco", "name": "Customer  116", "zip": "94112", "sales": "174.93", "state": "CA", "cust_id": "116", "location": "150 Edinburgh St San Francisco, CA 94112", "address": "150 Edinburgh St", "zip_code": "94112", "store_id": "2"}}, {"geometry": {"type": "Point", "coordinates": [-122.457414, 37.713832]}, "type": "Feature", "properties": {"city": "San Francisco", "name": "Customer  117", "zip": "94112", "sales": "111.08", "state": "CA", "cust_id": "117", "location": "150 Farallones St San Francisco, CA 94112", "address": "150 Farallones St", "zip_code": "94112", "store_id": "1"}}, {"geometry": {"type": "Point", "coordinates": [-122.44332, 37.729731]}, "type": "Feature", "properties": {"city": "San Francisco", "name": "Customer  118", "zip": "94131", "sales": "103.46", "state": "CA", "cust_id": "118", "location": "150 Flood Ave San Francisco, CA 94131", "address": "150 Flood Ave", "zip_code": "94131", "store_id": "2"}}, {"geometry": {"type": "Point", "coordinates": [-122.468639, 37.740414]}, "type": "Feature", "properties": {"city": "San Francisco", "name": "Customer  119", "zip": "94127", "sales": "27.52", "state": "CA", "cust_id": "119", "location": "150 Forest Side Ave San Francisco, CA 94127", "address": "150 Forest Side Ave", "zip_code": "94127", "store_id": "2"}}, {"geometry": {"type": "Point", "coordinates": [-122.42828, 37.784081]}, "type": "Feature", "properties": {"city": "San Francisco", "name": "Customer  12", "zip": "94115", "sales": "100.09", "state": "CA", "cust_id": "12", "location": "11 Western Shore Ln San Francisco, CA 94115", "address": "11 Western Shore Ln", "zip_code": "94115", "store_id": "1"}}, {"geometry": {"type": "Point", "coordinates": [-122.437074, 37.719278]}, "type": "Feature", "properties": {"city": "San Francisco", "name": "Customer  120", "zip": "94112", "sales": "171.96", "state": "CA", "cust_id": "120", "location": "150 France Ave San Francisco, CA 94112", "address": "150 France Ave", "zip_code": "94112", "store_id": "2"}}, {"geometry": {"type": "Point", "coordinates": [-122.418798, 37.777478]}, "type": "Feature", "properties": {"city": "San Francisco", "name": "Customer  121", "zip": "94102", "sales": "13.96", "state": "CA", "cust_id": "121", "location": "150 Hayes St San Francisco, CA 94102", "address": "150 Hayes St", "zip_code": "94102", "store_id": "1"}}, {"geometry": {"type": "Point", "coordinates": [-122.438174, 37.717727]}, "type": "Feature", "properties": {"city": "San Francisco", "name": "Customer  122", "zip": "94112", "sales": "41.48", "state": "CA", "cust_id": "122", "location": "150 Italy Ave San Francisco, CA 94112", "address": "150 Italy Ave", "zip_code": "94112", "store_id": "2"}}, {"geometry": {"type": "Point", "coordinates": [-122.438504, 37.73218]}, "type": "Feature", "properties": {"city": "San Francisco", "name": "Customer  123", "zip": "94131", "sales": "57.91", "state": "CA", "cust_id": "123", "location": "150 Joost Ave San Francisco, CA 94131", "address": "150 Joost Ave", "zip_code": "94131", "store_id": "2"}}, {"geometry": {"type": "Point", "coordinates": [-122.456582, 37.782602]}, "type": "Feature", "properties": {"city": "San Francisco", "name": "Customer  124", "zip": "94118", "sales": "196.12", "state": "CA", "cust_id": "124", "location": "150 Jordan Ave San Francisco, CA 94118", "address": "150 Jordan Ave", "zip_code": "94118", "store_id": "1"}}, {"geometry": {"type": "Point", "coordinates": [-122.421774, 37.741526]}, "type": "Feature", "properties": {"city": "San Francisco", "name": "Customer  125", "zip": "94110", "sales": "35.54", "state": "CA", "cust_id": "125", "location": "150 Kingston St San Francisco, CA 94110", "address": "150 Kingston St", "zip_code": "94110", "store_id": "2"}}, {"geometry": {"type": "Point", "coordinates": [-122.435937, 37.732966]}, "type": "Feature", "properties": {"city": "San Francisco", "name": "Customer  126", "zip": "94131", "sales": "28.31", "state": "CA", "cust_id": "126", "location": "150 Lippard Ave San Francisco, CA 94131", "address": "150 Lippard Ave", "zip_code": "94131", "store_id": "2"}}, {"geometry": {"type": "Point", "coordinates": [-122.447009, 37.740622]}, "type": "Feature", "properties": {"city": "San Francisco", "name": "Customer  127", "zip": "94127", "sales": "115.04", "state": "CA", "cust_id": "127", "location": "150 Marietta Dr San Francisco, CA 94127", "address": "150 Marietta Dr", "zip_code": "94127", "store_id": "2"}}, {"geometry": {"type": "Point", "coordinates": [-122.409284, 37.784939]}, "type": "Feature", "properties": {"city": "San Francisco", "name": "Customer  128", "zip": "94102", "sales": "19.21", "state": "CA", "cust_id": "128", "location": "150 Mason St San Francisco, CA 94102", "address": "150 Mason St", "zip_code": "94102", "store_id": "1"}}, {"geometry": {"type": "Point", "coordinates": [-122.44718, 37.78057]}, "type": "Feature", "properties": {"city": "San Francisco", "name": "Customer  129", "zip": "94118", "sales": "49.3", "state": "CA", "cust_id": "129", "location": "150 Masonic Ave San Francisco, CA 94118", "address": "150 Masonic Ave", "zip_code": "94118", "store_id": "1"}}, {"geometry": {"type": "Point", "coordinates": [-122.425749, 37.782227]}, "type": "Feature", "properties": {"city": "San Francisco", "name": "Customer  13", "zip": "94109", "sales": "56.63", "state": "CA", "cust_id": "13", "location": "1100 Eddy St San Francisco, CA 94109", "address": "1100 Eddy St", "zip_code": "94109", "store_id": "1"}}, {"geometry": {"type": "Point", "coordinates": [-122.428521, 37.737888]}, "type": "Feature", "properties": {"city": "San Francisco", "name": "Customer  130", "zip": "94131", "sales": "183.94", "state": "CA", "cust_id": "130", "location": "150 Miguel St San Francisco, CA 94131", "address": "150 Miguel St", "zip_code": "94131", "store_id": "2"}}, {"geometry": {"type": "Point", "coordinates": [-122.438504, 37.731431]}, "type": "Feature", "properties": {"city": "San Francisco", "name": "Customer  131", "zip": "94131", "sales": "95.34", "state": "CA", "cust_id": "131", "location": "150 Monterey Blvd San Francisco, CA 94131", "address": "150 Monterey Blvd", "zip_code": "94131", "store_id": "2"}}, {"geometry": {"type": "Point", "coordinates": [-122.42716, 37.729982]}, "type": "Feature", "properties": {"city": "San Francisco", "name": "Customer  132", "zip": "94112", "sales": "146.52", "state": "CA", "cust_id": "132", "location": "150 Ney St San Francisco, CA 94112", "address": "150 Ney St", "zip_code": "94112", "store_id": "2"}}, {"geometry": {"type": "Point", "coordinates": [-122.439839, 37.725119]}, "type": "Feature", "properties": {"city": "San Francisco", "name": "Customer  133", "zip": "94112", "sales": "118.3", "state": "CA", "cust_id": "133", "location": "150 Otsego Ave San Francisco, CA 94112", "address": "150 Otsego Ave", "zip_code": "94112", "store_id": "2"}}, {"geometry": {"type": "Point", "coordinates": [-122.431443, 37.726066]}, "type": "Feature", "properties": {"city": "San Francisco", "name": "Customer  134", "zip": "94112", "sales": "98.9", "state": "CA", "cust_id": "134", "location": "150 Paris St San Francisco, CA 94112", "address": "150 Paris St", "zip_code": "94112", "store_id": "2"}}, {"geometry": {"type": "Point", "coordinates": [-122.422253, 37.736579]}, "type": "Feature", "properties": {"city": "San Francisco", "name": "Customer  135", "zip": "94110", "sales": "150.38", "state": "CA", "cust_id": "135", "location": "150 Park St San Francisco, CA 94110", "address": "150 Park St", "zip_code": "94110", "store_id": "2"}}, {"geometry": {"type": "Point", "coordinates": [-122.454278, 37.782702]}, "type": "Feature", "properties": {"city": "San Francisco", "name": "Customer  136", "zip": "94118", "sales": "4.26", "state": "CA", "cust_id": "136", "location": "150 Parker Ave San Francisco, CA 94118", "address": "150 Parker Ave", "zip_code": "94118", "store_id": "1"}}, {"geometry": {"type": "Point", "coordinates": [-122.446645, 37.799936]}, "type": "Feature", "properties": {"city": "San Francisco", "name": "Customer  137", "zip": "94123", "sales": "2.87", "state": "CA", "cust_id": "137", "location": "150 Richardson Ave San Francisco, CA 94123", "address": "150 Richardson Ave", "zip_code": "94123", "store_id": "1"}}, {"geometry": {"type": "Point", "coordinates": [-122.456632, 37.736681]}, "type": "Feature", "properties": {"city": "San Francisco", "name": "Customer  138", "zip": "94127", "sales": "147.21", "state": "CA", "cust_id": "138", "location": "150 Robinhood Dr San Francisco, CA 94127", "address": "150 Robinhood Dr", "zip_code": "94127", "store_id": "2"}}, {"geometry": {"type": "Point", "coordinates": [-122.43459, 37.735724]}, "type": "Feature", "properties": {"city": "San Francisco", "name": "Customer  139", "zip": "94131", "sales": "109.1", "state": "CA", "cust_id": "139", "location": "150 Surrey St San Francisco, CA 94131", "address": "150 Surrey St", "zip_code": "94131", "store_id": "2"}}, {"geometry": {"type": "Point", "coordinates": [-122.427128, 37.752797]}, "type": "Feature", "properties": {"city": "San Francisco", "name": "Customer  14", "zip": "94114", "sales": "48.41", "state": "CA", "cust_id": "14", "location": "1126 Church St San Francisco, CA 94114", "address": "1126 Church St", "zip_code": "94114", "store_id": "2"}}, {"geometry": {"type": "Point", "coordinates": [-122.408355, 37.732722]}, "type": "Feature", "properties": {"city": "San Francisco", "name": "Customer  140", "zip": "94134", "sales": "166.91", "state": "CA", "cust_id": "140", "location": "150 Sweeny St San Francisco, CA 94134", "address": "150 Sweeny St", "zip_code": "94134", "store_id": "2"}}, {"geometry": {"type": "Point", "coordinates": [-122.437931, 37.736071]}, "type": "Feature", "properties": {"city": "San Francisco", "name": "Customer  141", "zip": "94131", "sales": "62.77", "state": "CA", "cust_id": "141", "location": "150 Swiss Ave San Francisco, CA 94131", "address": "150 Swiss Ave", "zip_code": "94131", "store_id": "2"}}, {"geometry": {"type": "Point", "coordinates": [-122.42716, 37.730682]}, "type": "Feature", "properties": {"city": "San Francisco", "name": "Customer  142", "zip": "94112", "sales": "170.78", "state": "CA", "cust_id": "142", "location": "150 Trumbull St San Francisco, CA 94112", "address": "150 Trumbull St", "zip_code": "94112", "store_id": "2"}}, {"geometry": {"type": "Point", "coordinates": [-122.467734, 37.715001]}, "type": "Feature", "properties": {"city": "San Francisco", "name": "Customer  143", "zip": "94132", "sales": "152.76", "state": "CA", "cust_id": "143", "location": "150 Vernon St San Francisco, CA 94132", "address": "150 Vernon St", "zip_code": "94132", "store_id": "2"}}, {"geometry": {"type": "Point", "coordinates": [-122.465083, 37.713446]}, "type": "Feature", "properties": {"city": "San Francisco", "name": "Customer  144", "zip": "94132", "sales": "112.76", "state": "CA", "cust_id": "144", "location": "150 Victoria St San Francisco, CA 94132", "address": "150 Victoria St", "zip_code": "94132", "store_id": "2"}}, {"geometry": {"type": "Point", "coordinates": [-122.426294, 37.725766]}, "type": "Feature", "properties": {"city": "San Francisco", "name": "Customer  145", "zip": "94112", "sales": "117.22", "state": "CA", "cust_id": "145", "location": "150 Vienna St San Francisco, CA 94112", "address": "150 Vienna St", "zip_code": "94112", "store_id": "2"}}, {"geometry": {"type": "Point", "coordinates": [-122.448729, 37.781566]}, "type": "Feature", "properties": {"city": "San Francisco", "name": "Customer  146", "zip": "94118", "sales": "28.81", "state": "CA", "cust_id": "146", "location": "150 Wood St San Francisco, CA 94118", "address": "150 Wood St", "zip_code": "94118", "store_id": "1"}}, {"geometry": {"type": "Point", "coordinates": [-122.435439, 37.779072]}, "type": "Feature", "properties": {"city": "San Francisco", "name": "Customer  147", "zip": "94115", "sales": "9.7", "state": "CA", "cust_id": "147", "location": "1528 Golden Gate Ave San Francisco, CA 94115", "address": "1528 Golden Gate Ave", "zip_code": "94115", "store_id": "1"}}, {"geometry": {"type": "Point", "coordinates": [-122.429484, 37.739756]}, "type": "Feature", "properties": {"city": "San Francisco", "name": "Customer  148", "zip": "94131", "sales": "34.65", "state": "CA", "cust_id": "148", "location": "154 Laidley St San Francisco, CA 94131", "address": "154 Laidley St", "zip_code": "94131", "store_id": "2"}}, {"geometry": {"type": "Point", "coordinates": [-122.441384, 37.784588]}, "type": "Feature", "properties": {"city": "San Francisco", "name": "Customer  149", "zip": "94115", "sales": "43.56", "state": "CA", "cust_id": "149", "location": "1550 Broderick St San Francisco, CA 94115", "address": "1550 Broderick St", "zip_code": "94115", "store_id": "1"}}, {"geometry": {"type": "Point", "coordinates": [-122.411582, 37.77866]}, "type": "Feature", "properties": {"city": "San Francisco", "name": "Customer  15", "zip": "94103", "sales": "19.21", "state": "CA", "cust_id": "15", "location": "1129 Mission St San Francisco, CA 94103", "address": "1129 Mission St", "zip_code": "94103", "store_id": "1"}}, {"geometry": {"type": "Point", "coordinates": [-122.433047, 37.781278]}, "type": "Feature", "properties": {"city": "San Francisco", "name": "Customer  150", "zip": "94115", "sales": "26.63", "state": "CA", "cust_id": "150", "location": "1550 Eddy St San Francisco, CA 94115", "address": "1550 Eddy St", "zip_code": "94115", "store_id": "1"}}, {"geometry": {"type": "Point", "coordinates": [-122.420549, 37.794326]}, "type": "Feature", "properties": {"city": "San Francisco", "name": "Customer  151", "zip": "94109", "sales": "24.26", "state": "CA", "cust_id": "151", "location": "1550 Jackson St San Francisco, CA 94109", "address": "1550 Jackson St", "zip_code": "94109", "store_id": "1"}}, {"geometry": {"type": "Point", "coordinates": [-122.387485, 37.731473]}, "type": "Feature", "properties": {"city": "San Francisco", "name": "Customer  152", "zip": "94124", "sales": "162.66", "state": "CA", "cust_id": "152", "location": "1550 Keith St San Francisco, CA 94124", "address": "1550 Keith St", "zip_code": "94124", "store_id": "1"}}, {"geometry": {"type": "Point", "coordinates": [-122.38895, 37.734691]}, "type": "Feature", "properties": {"city": "San Francisco", "name": "Customer  153", "zip": "94124", "sales": "21.88", "state": "CA", "cust_id": "153", "location": "1550 Newcomb Ave San Francisco, CA 94124", "address": "1550 Newcomb Ave", "zip_code": "94124", "store_id": "2"}}, {"geometry": {"type": "Point", "coordinates": [-122.446049, 37.771027]}, "type": "Feature", "properties": {"city": "San Francisco", "name": "Customer  154", "zip": "94117", "sales": "41.09", "state": "CA", "cust_id": "154", "location": "1550 Page St San Francisco, CA 94117", "address": "1550 Page St", "zip_code": "94117", "store_id": "1"}}, {"geometry": {"type": "Point", "coordinates": [-122.437784, 37.784139]}, "type": "Feature", "properties": {"city": "San Francisco", "name": "Customer  155", "zip": "94115", "sales": "41.98", "state": "CA", "cust_id": "155", "location": "1550 Scott St San Francisco, CA 94115", "address": "1550 Scott St", "zip_code": "94115", "store_id": "1"}}, {"geometry": {"type": "Point", "coordinates": [-122.425847, 37.787176]}, "type": "Feature", "properties": {"city": "San Francisco", "name": "Customer  156", "zip": "94109", "sales": "9.7", "state": "CA", "cust_id": "156", "location": "1550 Sutter St San Francisco, CA 94109", "address": "1550 Sutter St", "zip_code": "94109", "store_id": "1"}}, {"geometry": {"type": "Point", "coordinates": [-122.431184, 37.784988]}, "type": "Feature", "properties": {"city": "San Francisco", "name": "Customer  157", "zip": "94115", "sales": "64.35", "state": "CA", "cust_id": "157", "location": "1550 Webster St San Francisco, CA 94115", "address": "1550 Webster St", "zip_code": "94115", "store_id": "1"}}, {"geometry": {"type": "Point", "coordinates": [-122.420796, 37.735073]}, "type": "Feature", "properties": {"city": "San Francisco", "name": "Customer  158", "zip": "94110", "sales": "39.5", "state": "CA", "cust_id": "158", "location": "156 Crescent Ave San Francisco, CA 94110", "address": "156 Crescent Ave", "zip_code": "94110", "store_id": "1"}}, {"geometry": {"type": "Point", "coordinates": [-122.434794, 37.731641]}, "type": "Feature", "properties": {"city": "San Francisco", "name": "Customer  159", "zip": "94112", "sales": "183.65", "state": "CA", "cust_id": "159", "location": "1560 San Jose Ave San Francisco, CA 94112", "address": "1560 San Jose Ave", "zip_code": "94112", "store_id": "2"}}, {"geometry": {"type": "Point", "coordinates": [-122.428584, 37.780488]}, "type": "Feature", "properties": {"city": "San Francisco", "name": "Customer  16", "zip": "94115", "sales": "26.24", "state": "CA", "cust_id": "16", "location": "1150 Buchanan St San Francisco, CA 94115", "address": "1150 Buchanan St", "zip_code": "94115", "store_id": "1"}}, {"geometry": {"type": "Point", "coordinates": [-122.430572, 37.783568]}, "type": "Feature", "properties": {"city": "San Francisco", "name": "Customer  160", "zip": "94115", "sales": "30.59", "state": "CA", "cust_id": "160", "location": "1561 Ofarrell St San Francisco, CA 94115", "address": "1561 Ofarrell St", "zip_code": "94115", "store_id": "1"}}, {"geometry": {"type": "Point", "coordinates": [-122.426353, 37.738816]}, "type": "Feature", "properties": {"city": "San Francisco", "name": "Customer  161", "zip": "94131", "sales": "0.89", "state": "CA", "cust_id": "161", "location": "157 Fairmount St San Francisco, CA 94131", "address": "157 Fairmount St", "zip_code": "94131", "store_id": "2"}}, {"geometry": {"type": "Point", "coordinates": [-122.435682, 37.726981]}, "type": "Feature", "properties": {"city": "San Francisco", "name": "Customer  162", "zip": "94112", "sales": "136.42", "state": "CA", "cust_id": "162", "location": "1574 Alemany Blvd San Francisco, CA 94112", "address": "1574 Alemany Blvd", "zip_code": "94112", "store_id": "2"}}, {"geometry": {"type": "Point", "coordinates": [-122.432032, 37.782479]}, "type": "Feature", "properties": {"city": "San Francisco", "name": "Customer  163", "zip": "94115", "sales": "23.27", "state": "CA", "cust_id": "163", "location": "1575 Ellis St San Francisco, CA 94115", "address": "1575 Ellis St", "zip_code": "94115", "store_id": "1"}}, {"geometry": {"type": "Point", "coordinates": [-122.436255, 37.77897]}, "type": "Feature", "properties": {"city": "San Francisco", "name": "Customer  164", "zip": "94115", "sales": "39.9", "state": "CA", "cust_id": "164", "location": "1578 Golden Gate Ave San Francisco, CA 94115", "address": "1578 Golden Gate Ave", "zip_code": "94115", "store_id": "1"}}, {"geometry": {"type": "Point", "coordinates": [-122.419962, 37.73987]}, "type": "Feature", "properties": {"city": "San Francisco", "name": "Customer  165", "zip": "94110", "sales": "14.16", "state": "CA", "cust_id": "165", "location": "158 Cortland Ave San Francisco, CA 94110", "address": "158 Cortland Ave", "zip_code": "94110", "store_id": "2"}}, {"geometry": {"type": "Point", "coordinates": [-122.460243, 37.737783]}, "type": "Feature", "properties": {"city": "San Francisco", "name": "Customer  166", "zip": "94127", "sales": "46.63", "state": "CA", "cust_id": "166", "location": "160 Lansdale Ave San Francisco, CA 94127", "address": "160 Lansdale Ave", "zip_code": "94127", "store_id": "2"}}, {"geometry": {"type": "Point", "coordinates": [-122.420182, 37.74673]}, "type": "Feature", "properties": {"city": "San Francisco", "name": "Customer  167", "zip": "94110", "sales": "0.89", "state": "CA", "cust_id": "167", "location": "1600 Valencia St San Francisco, CA 94110", "address": "1600 Valencia St", "zip_code": "94110", "store_id": "2"}}, {"geometry": {"type": "Point", "coordinates": [-122.437032, 37.778879]}, "type": "Feature", "properties": {"city": "San Francisco", "name": "Customer  168", "zip": "94115", "sales": "47.12", "state": "CA", "cust_id": "168", "location": "1625 Golden Gate Ave San Francisco, CA 94115", "address": "1625 Golden Gate Ave", "zip_code": "94115", "store_id": "1"}}, {"geometry": {"type": "Point", "coordinates": [-122.476241, 37.776629]}, "type": "Feature", "properties": {"city": "San Francisco", "name": "Customer  169", "zip": "94121", "sales": "23.86", "state": "CA", "cust_id": "169", "location": "1650 Balboa St San Francisco, CA 94121", "address": "1650 Balboa St", "zip_code": "94121", "store_id": "1"}}, {"geometry": {"type": "Point", "coordinates": [-122.438584, 37.780188]}, "type": "Feature", "properties": {"city": "San Francisco", "name": "Customer  17", "zip": "94115", "sales": "52.27", "state": "CA", "cust_id": "17", "location": "1150 Divisadero St San Francisco, CA 94115", "address": "1150 Divisadero St", "zip_code": "94115", "store_id": "1"}}, {"geometry": {"type": "Point", "coordinates": [-122.439756, 37.784809]}, "type": "Feature", "properties": {"city": "San Francisco", "name": "Customer  170", "zip": "94115", "sales": "5.45", "state": "CA", "cust_id": "170", "location": "1650 Divisadero St San Francisco, CA 94115", "address": "1650 Divisadero St", "zip_code": "94115", "store_id": "1"}}, {"geometry": {"type": "Point", "coordinates": [-122.412782, 37.784929]}, "type": "Feature", "properties": {"city": "San Francisco", "name": "Customer  171", "zip": "94115", "sales": "16.14", "state": "CA", "cust_id": "171", "location": "1650 Ellis St San Francisco, CA 94115", "address": "1650 Ellis St", "zip_code": "94102", "store_id": "1"}}, {"geometry": {"type": "Point", "coordinates": [-122.444949, 37.773076]}, "type": "Feature", "properties": {"city": "San Francisco", "name": "Customer  172", "zip": "94117", "sales": "40.99", "state": "CA", "cust_id": "172", "location": "1650 Fell St San Francisco, CA 94117", "address": "1650 Fell St", "zip_code": "94117", "store_id": "1"}}, {"geometry": {"type": "Point", "coordinates": [-122.432915, 37.784739]}, "type": "Feature", "properties": {"city": "San Francisco", "name": "Customer  173", "zip": "94115", "sales": "3.17", "state": "CA", "cust_id": "173", "location": "1650 Fillmore St San Francisco, CA 94115", "address": "1650 Fillmore St", "zip_code": "94115", "store_id": "1"}}, {"geometry": {"type": "Point", "coordinates": [-122.443849, 37.776076]}, "type": "Feature", "properties": {"city": "San Francisco", "name": "Customer  174", "zip": "94117", "sales": "44.95", "state": "CA", "cust_id": "174", "location": "1650 Fulton St San Francisco, CA 94117", "address": "1650 Fulton St", "zip_code": "94117", "store_id": "1"}}, {"geometry": {"type": "Point", "coordinates": [-122.430298, 37.784627]}, "type": "Feature", "properties": {"city": "San Francisco", "name": "Customer  175", "zip": "94115", "sales": "42.27", "state": "CA", "cust_id": "175", "location": "1650 Geary Blvd San Francisco, CA 94115", "address": "1650 Geary Blvd", "zip_code": "94115", "store_id": "1"}}, {"geometry": {"type": "Point", "coordinates": [-122.41729, 37.770913]}, "type": "Feature", "properties": {"city": "San Francisco", "name": "Customer  176", "zip": "94103", "sales": "31.88", "state": "CA", "cust_id": "176", "location": "1650 Howard St San Francisco, CA 94103", "address": "1650 Howard St", "zip_code": "94103", "store_id": "1"}}, {"geometry": {"type": "Point", "coordinates": [-122.438998, 37.777727]}, "type": "Feature", "properties": {"city": "San Francisco", "name": "Customer  177", "zip": "94115", "sales": "25.44", "state": "CA", "cust_id": "177", "location": "1650 McAllister St San Francisco, CA 94115", "address": "1650 McAllister St", "zip_code": "94115", "store_id": "1"}}, {"geometry": {"type": "Point", "coordinates": [-122.480343, 37.755779]}, "type": "Feature", "properties": {"city": "San Francisco", "name": "Customer  178", "zip": "94122", "sales": "115.04", "state": "CA", "cust_id": "178", "location": "1650 Moraga St San Francisco, CA 94122", "address": "1650 Moraga St", "zip_code": "94122", "store_id": "1"}}, {"geometry": {"type": "Point", "coordinates": [-122.421292, 37.726878]}, "type": "Feature", "properties": {"city": "San Francisco", "name": "Customer  179", "zip": "94134", "sales": "137.21", "state": "CA", "cust_id": "179", "location": "1650 Silliman St San Francisco, CA 94134", "address": "1650 Silliman St", "zip_code": "94134", "store_id": "2"}}, {"geometry": {"type": "Point", "coordinates": [-122.431784, 37.780039]}, "type": "Feature", "properties": {"city": "San Francisco", "name": "Customer  18", "zip": "94115", "sales": "33.07", "state": "CA", "cust_id": "18", "location": "1150 Fillmore St San Francisco, CA 94115", "address": "1150 Fillmore St", "zip_code": "94115", "store_id": "1"}}, {"geometry": {"type": "Point", "coordinates": [-122.422282, 37.781829]}, "type": "Feature", "properties": {"city": "San Francisco", "name": "Customer  180", "zip": "94115", "sales": "20.59", "state": "CA", "cust_id": "180", "location": "1650 Turk St San Francisco, CA 94115", "address": "1650 Turk St", "zip_code": "94102", "store_id": "1"}}, {"geometry": {"type": "Point", "coordinates": [-122.42178, 37.766549]}, "type": "Feature", "properties": {"city": "San Francisco", "name": "Customer  181", "zip": "94103", "sales": "130.09", "state": "CA", "cust_id": "181", "location": "1688 15th St San Francisco, CA 94103", "address": "1688 15th St", "zip_code": "94103", "store_id": "1"}}, {"geometry": {"type": "Point", "coordinates": [-122.464893, 37.748674]}, "type": "Feature", "properties": {"city": "San Francisco", "name": "Customer  182", "zip": "94116", "sales": "22.97", "state": "CA", "cust_id": "182", "location": "17 Mendosa Ave San Francisco, CA 94116", "address": "17 Mendosa Ave", "zip_code": "94116", "store_id": "1"}}, {"geometry": {"type": "Point", "coordinates": [-122.432941, 37.783284]}, "type": "Feature", "properties": {"city": "San Francisco", "name": "Customer  183", "zip": "94115", "sales": "35.24", "state": "CA", "cust_id": "183", "location": "1722 Ofarrell St San Francisco, CA 94115", "address": "1722 Ofarrell St", "zip_code": "94115", "store_id": "1"}}, {"geometry": {"type": "Point", "coordinates": [-122.420032, 37.769529]}, "type": "Feature", "properties": {"city": "San Francisco", "name": "Customer  184", "zip": "94103", "sales": "8.71", "state": "CA", "cust_id": "184", "location": "1725 Mission St San Francisco, CA 94103", "address": "1725 Mission St", "zip_code": "94103", "store_id": "2"}}, {"geometry": {"type": "Point", "coordinates": [-122.435767, 37.780976]}, "type": "Feature", "properties": {"city": "San Francisco", "name": "Customer  185", "zip": "94115", "sales": "152.95", "state": "CA", "cust_id": "185", "location": "1726 Eddy St San Francisco, CA 94115", "address": "1726 Eddy St", "zip_code": "94115", "store_id": "1"}}, {"geometry": {"type": "Point", "coordinates": [-122.399781, 37.73183]}, "type": "Feature", "properties": {"city": "San Francisco", "name": "Customer  186", "zip": "94124", "sales": "85.54", "state": "CA", "cust_id": "186", "location": "174 Scotia Ave San Francisco, CA 94124", "address": "174 Scotia Ave", "zip_code": "94124", "store_id": "2"}}, {"geometry": {"type": "Point", "coordinates": [-122.428732, 37.768179]}, "type": "Feature", "properties": {"city": "San Francisco", "name": "Customer  187", "zip": "94114", "sales": "25.84", "state": "CA", "cust_id": "187", "location": "175 Church St San Francisco, CA 94114", "address": "175 Church St", "zip_code": "94114", "store_id": "1"}}, {"geometry": {"type": "Point", "coordinates": [-122.425749, 37.795475]}, "type": "Feature", "properties": {"city": "San Francisco", "name": "Customer  188", "zip": "94109", "sales": "35.44", "state": "CA", "cust_id": "188", "location": "1750 Broadway St San Francisco, CA 94109", "address": "1750 Broadway St", "zip_code": "94109", "store_id": "1"}}, {"geometry": {"type": "Point", "coordinates": [-122.429784, 37.786137]}, "type": "Feature", "properties": {"city": "San Francisco", "name": "Customer  189", "zip": "94115", "sales": "48.91", "state": "CA", "cust_id": "189", "location": "1750 Buchanan St San Francisco, CA 94115", "address": "1750 Buchanan St", "zip_code": "94115", "store_id": "1"}}, {"geometry": {"type": "Point", "coordinates": [-122.435635, 37.777143]}, "type": "Feature", "properties": {"city": "San Francisco", "name": "Customer  19", "zip": "94117", "sales": "130.38", "state": "CA", "cust_id": "19", "location": "1150 Fulton St San Francisco, CA 94117", "address": "1150 Fulton St", "zip_code": "94117", "store_id": "1"}}, {"geometry": {"type": "Point", "coordinates": [-122.423049, 37.790327]}, "type": "Feature", "properties": {"city": "San Francisco", "name": "Customer  190", "zip": "94109", "sales": "10.4", "state": "CA", "cust_id": "190", "location": "1750 California St San Francisco, CA 94109", "address": "1750 California St", "zip_code": "94109", "store_id": "1"}}, {"geometry": {"type": "Point", "coordinates": [-122.439933, 37.785739]}, "type": "Feature", "properties": {"city": "San Francisco", "name": "Customer  191", "zip": "94115", "sales": "5.15", "state": "CA", "cust_id": "191", "location": "1750 Divisadero St San Francisco, CA 94115", "address": "1750 Divisadero St", "zip_code": "94115", "store_id": "1"}}, {"geometry": {"type": "Point", "coordinates": [-122.434798, 37.782127]}, "type": "Feature", "properties": {"city": "San Francisco", "name": "Customer  192", "zip": "94115", "sales": "15.74", "state": "CA", "cust_id": "192", "location": "1750 Ellis St San Francisco, CA 94115", "address": "1750 Ellis St", "zip_code": "94115", "store_id": "1"}}, {"geometry": {"type": "Point", "coordinates": [-122.446598, 37.772827]}, "type": "Feature", "properties": {"city": "San Francisco", "name": "Customer  193", "zip": "94117", "sales": "46.33", "state": "CA", "cust_id": "193", "location": "1750 Fell St San Francisco, CA 94117", "address": "1750 Fell St", "zip_code": "94117", "store_id": "2"}}, {"geometry": {"type": "Point", "coordinates": [-122.433071, 37.785682]}, "type": "Feature", "properties": {"city": "San Francisco", "name": "Customer  194", "zip": "94115", "sales": "43.96", "state": "CA", "cust_id": "194", "location": "1750 Fillmore St San Francisco, CA 94115", "address": "1750 Fillmore St", "zip_code": "94115", "store_id": "1"}}, {"geometry": {"type": "Point", "coordinates": [-122.423933, 37.790688]}, "type": "Feature", "properties": {"city": "San Francisco", "name": "Customer  195", "zip": "94109", "sales": "8.22", "state": "CA", "cust_id": "195", "location": "1750 Franklin St San Francisco, CA 94109", "address": "1750 Franklin St", "zip_code": "94109", "store_id": "1"}}, {"geometry": {"type": "Point", "coordinates": [-122.428447, 37.799977]}, "type": "Feature", "properties": {"city": "San Francisco", "name": "Customer  196", "zip": "94123", "sales": "34.25", "state": "CA", "cust_id": "196", "location": "1750 Greenwich St San Francisco, CA 94123", "address": "1750 Greenwich St", "zip_code": "94123", "store_id": "1"}}, {"geometry": {"type": "Point", "coordinates": [-122.445147, 37.775027]}, "type": "Feature", "properties": {"city": "San Francisco", "name": "Customer  197", "zip": "94117", "sales": "19.31", "state": "CA", "cust_id": "197", "location": "1750 Grove St San Francisco, CA 94117", "address": "1750 Grove St", "zip_code": "94117", "store_id": "1"}}, {"geometry": {"type": "Point", "coordinates": [-122.479443, 37.759579]}, "type": "Feature", "properties": {"city": "San Francisco", "name": "Customer  198", "zip": "94122", "sales": "47.62", "state": "CA", "cust_id": "198", "location": "1750 Kirkham St San Francisco, CA 94122", "address": "1750 Kirkham St", "zip_code": "94122", "store_id": "2"}}, {"geometry": {"type": "Point", "coordinates": [-122.392599, 37.736791]}, "type": "Feature", "properties": {"city": "San Francisco", "name": "Customer  199", "zip": "94124", "sales": "176.02", "state": "CA", "cust_id": "199", "location": "1750 Newcomb Ave San Francisco, CA 94124", "address": "1750 Newcomb Ave", "zip_code": "94124", "store_id": "2"}}, {"geometry": {"type": "Point", "coordinates": [-122.392581, 37.73153]}, "type": "Feature", "properties": {"city": "San Francisco", "name": "Customer  2", "zip": "94124", "sales": "0.89", "state": "CA", "cust_id": "2", "location": "50 Latona St San Francisco, CA 94124", "address": "50 Latona St", "zip_code": "94124", "store_id": "2"}}, {"geometry": {"type": "Point", "coordinates": [-122.424335, 37.783988]}, "type": "Feature", "properties": {"city": "San Francisco", "name": "Customer  20", "zip": "94109", "sales": "16.43", "state": "CA", "cust_id": "20", "location": "1150 Gough St San Francisco, CA 94109", "address": "1150 Gough St", "zip_code": "94109", "store_id": "1"}}, {"geometry": {"type": "Point", "coordinates": [-122.430498, 37.785576]}, "type": "Feature", "properties": {"city": "San Francisco", "name": "Customer  200", "zip": "94115", "sales": "33.16", "state": "CA", "cust_id": "200", "location": "1750 Post St San Francisco, CA 94115", "address": "1750 Post St", "zip_code": "94115", "store_id": "1"}}, {"geometry": {"type": "Point", "coordinates": [-122.434633, 37.785488]}, "type": "Feature", "properties": {"city": "San Francisco", "name": "Customer  201", "zip": "94115", "sales": "46.63", "state": "CA", "cust_id": "201", "location": "1750 Steiner St San Francisco, CA 94115", "address": "1750 Steiner St", "zip_code": "94115", "store_id": "1"}}, {"geometry": {"type": "Point", "coordinates": [-122.425998, 37.796426]}, "type": "Feature", "properties": {"city": "San Francisco", "name": "Customer  202", "zip": "94123", "sales": "44.35", "state": "CA", "cust_id": "202", "location": "1750 Vallejo St San Francisco, CA 94123", "address": "1750 Vallejo St", "zip_code": "94123", "store_id": "1"}}, {"geometry": {"type": "Point", "coordinates": [-122.431684, 37.786839]}, "type": "Feature", "properties": {"city": "San Francisco", "name": "Customer  203", "zip": "94115", "sales": "14.26", "state": "CA", "cust_id": "203", "location": "1750 Webster St San Francisco, CA 94115", "address": "1750 Webster St", "zip_code": "94115", "store_id": "1"}}, {"geometry": {"type": "Point", "coordinates": [-122.436563, 37.780876]}, "type": "Feature", "properties": {"city": "San Francisco", "name": "Customer  204", "zip": "94115", "sales": "8.42", "state": "CA", "cust_id": "204", "location": "1776 Eddy St San Francisco, CA 94115", "address": "1776 Eddy St", "zip_code": "94115", "store_id": "1"}}, {"geometry": {"type": "Point", "coordinates": [-122.441409, 37.727444]}, "type": "Feature", "properties": {"city": "San Francisco", "name": "Customer  205", "zip": "94112", "sales": "132.26", "state": "CA", "cust_id": "205", "location": "18 Paulding St San Francisco, CA 94112", "address": "18 Paulding St", "zip_code": "94112", "store_id": "2"}}, {"geometry": {"type": "Point", "coordinates": [-122.469847, 37.753348]}, "type": "Feature", "properties": {"city": "San Francisco", "name": "Customer  206", "zip": "94116", "sales": "21.48", "state": "CA", "cust_id": "206", "location": "1835 Funston Ave San Francisco, CA 94116", "address": "1835 Funston Ave", "zip_code": "94116", "store_id": "2"}}, {"geometry": {"type": "Point", "coordinates": [-122.423913, 37.771398]}, "type": "Feature", "properties": {"city": "San Francisco", "name": "Customer  207", "zip": "94102", "sales": "40.29", "state": "CA", "cust_id": "207", "location": "1844 Market St San Francisco, CA 94102", "address": "1844 Market St", "zip_code": "94103", "store_id": "2"}}, {"geometry": {"type": "Point", "coordinates": [-122.427398, 37.795277]}, "type": "Feature", "properties": {"city": "San Francisco", "name": "Customer  208", "zip": "94109", "sales": "1.29", "state": "CA", "cust_id": "208", "location": "1850 Broadway St San Francisco, CA 94109", "address": "1850 Broadway St", "zip_code": "94109", "store_id": "1"}}, {"geometry": {"type": "Point", "coordinates": [-122.441884, 37.787388]}, "type": "Feature", "properties": {"city": "San Francisco", "name": "Customer  209", "zip": "94115", "sales": "10.4", "state": "CA", "cust_id": "209", "location": "1850 Broderick St San Francisco, CA 94115", "address": "1850 Broderick St", "zip_code": "94115", "store_id": "1"}}, {"geometry": {"type": "Point", "coordinates": [-122.445131, 37.770619]}, "type": "Feature", "properties": {"city": "San Francisco", "name": "Customer  21", "zip": "94117", "sales": "13.37", "state": "CA", "cust_id": "21", "location": "1150 Masonic Ave San Francisco, CA 94117", "address": "1150 Masonic Ave", "zip_code": "94117", "store_id": "1"}}, {"geometry": {"type": "Point", "coordinates": [-122.427598, 37.787827]}, "type": "Feature", "properties": {"city": "San Francisco", "name": "Customer  210", "zip": "94109", "sales": "45.74", "state": "CA", "cust_id": "210", "location": "1850 Bush St San Francisco, CA 94109", "address": "1850 Bush St", "zip_code": "94109", "store_id": "1"}}, {"geometry": {"type": "Point", "coordinates": [-122.424698, 37.790127]}, "type": "Feature", "properties": {"city": "San Francisco", "name": "Customer  211", "zip": "94109", "sales": "30.49", "state": "CA", "cust_id": "211", "location": "1850 California St San Francisco, CA 94109", "address": "1850 California St", "zip_code": "94109", "store_id": "1"}}, {"geometry": {"type": "Point", "coordinates": [-122.43322, 37.786633]}, "type": "Feature", "properties": {"city": "San Francisco", "name": "Customer  212", "zip": "94115", "sales": "23.27", "state": "CA", "cust_id": "212", "location": "1850 Fillmore St San Francisco, CA 94115", "address": "1850 Fillmore St", "zip_code": "94115", "store_id": "1"}}, {"geometry": {"type": "Point", "coordinates": [-122.446749, 37.774776]}, "type": "Feature", "properties": {"city": "San Francisco", "name": "Customer  213", "zip": "94117", "sales": "10.49", "state": "CA", "cust_id": "213", "location": "1850 Grove St San Francisco, CA 94117", "address": "1850 Grove St", "zip_code": "94117", "store_id": "2"}}, {"geometry": {"type": "Point", "coordinates": [-122.419784, 37.794887]}, "type": "Feature", "properties": {"city": "San Francisco", "name": "Customer  214", "zip": "94109", "sales": "20.49", "state": "CA", "cust_id": "214", "location": "1850 Larkin St San Francisco, CA 94109", "address": "1850 Larkin St", "zip_code": "94109", "store_id": "2"}}, {"geometry": {"type": "Point", "coordinates": [-122.427084, 37.789388]}, "type": "Feature", "properties": {"city": "San Francisco", "name": "Customer  215", "zip": "94109", "sales": "3.27", "state": "CA", "cust_id": "215", "location": "1850 Octavia St San Francisco, CA 94109", "address": "1850 Octavia St", "zip_code": "94109", "store_id": "1"}}, {"geometry": {"type": "Point", "coordinates": [-122.426198, 37.789027]}, "type": "Feature", "properties": {"city": "San Francisco", "name": "Customer  216", "zip": "94109", "sales": "11.09", "state": "CA", "cust_id": "216", "location": "1850 Pine St San Francisco, CA 94109", "address": "1850 Pine St", "zip_code": "94109", "store_id": "1"}}, {"geometry": {"type": "Point", "coordinates": [-122.421284, 37.793787]}, "type": "Feature", "properties": {"city": "San Francisco", "name": "Customer  217", "zip": "94109", "sales": "14.85", "state": "CA", "cust_id": "217", "location": "1850 Polk St San Francisco, CA 94109", "address": "1850 Polk St", "zip_code": "94109", "store_id": "1"}}, {"geometry": {"type": "Point", "coordinates": [-122.432149, 37.785327]}, "type": "Feature", "properties": {"city": "San Francisco", "name": "Customer  218", "zip": "94115", "sales": "14.95", "state": "CA", "cust_id": "218", "location": "1850 Post St San Francisco, CA 94115", "address": "1850 Post St", "zip_code": "94115", "store_id": "1"}}, {"geometry": {"type": "Point", "coordinates": [-122.430749, 37.786427]}, "type": "Feature", "properties": {"city": "San Francisco", "name": "Customer  219", "zip": "94115", "sales": "19.31", "state": "CA", "cust_id": "219", "location": "1850 Sutter St San Francisco, CA 94115", "address": "1850 Sutter St", "zip_code": "94115", "store_id": "1"}}, {"geometry": {"type": "Point", "coordinates": [-122.430749, 37.778727]}, "type": "Feature", "properties": {"city": "San Francisco", "name": "Customer  22", "zip": "94115", "sales": "23.36", "state": "CA", "cust_id": "22", "location": "1150 McAllister St San Francisco, CA 94115", "address": "1150 McAllister St", "zip_code": "94115", "store_id": "1"}}, {"geometry": {"type": "Point", "coordinates": [-122.46757, 37.753332]}, "type": "Feature", "properties": {"city": "San Francisco", "name": "Customer  220", "zip": "94122", "sales": "48.61", "state": "CA", "cust_id": "220", "location": "1862 11th Ave San Francisco, CA 94122", "address": "1862 11th Ave", "zip_code": "94122", "store_id": "2"}}, {"geometry": {"type": "Point", "coordinates": [-122.424319, 37.770992]}, "type": "Feature", "properties": {"city": "San Francisco", "name": "Customer  221", "zip": "94102", "sales": "128.2", "state": "CA", "cust_id": "221", "location": "1870 Market St San Francisco, CA 94102", "address": "1870 Market St", "zip_code": "94103", "store_id": "1"}}, {"geometry": {"type": "Point", "coordinates": [-122.434012, 37.784082]}, "type": "Feature", "properties": {"city": "San Francisco", "name": "Customer  222", "zip": "94115", "sales": "33.26", "state": "CA", "cust_id": "222", "location": "1875 Geary Blvd San Francisco, CA 94115", "address": "1875 Geary Blvd", "zip_code": "94115", "store_id": "1"}}, {"geometry": {"type": "Point", "coordinates": [-122.436118, 37.736344]}, "type": "Feature", "properties": {"city": "San Francisco", "name": "Customer  223", "zip": "94131", "sales": "139", "state": "CA", "cust_id": "223", "location": "188 Sussex St San Francisco, CA 94131", "address": "188 Sussex St", "zip_code": "94131", "store_id": "2"}}, {"geometry": {"type": "Point", "coordinates": [-122.433482, 37.787529]}, "type": "Feature", "properties": {"city": "San Francisco", "name": "Customer  224", "zip": "94115", "sales": "48.02", "state": "CA", "cust_id": "224", "location": "1909 Fillmore St San Francisco, CA 94115", "address": "1909 Fillmore St", "zip_code": "94115", "store_id": "1"}}, {"geometry": {"type": "Point", "coordinates": [-122.426164, 37.729323]}, "type": "Feature", "properties": {"city": "San Francisco", "name": "Customer  225", "zip": "94112", "sales": "117.32", "state": "CA", "cust_id": "225", "location": "192 Maynard St San Francisco, CA 94112", "address": "192 Maynard St", "zip_code": "94112", "store_id": "2"}}, {"geometry": {"type": "Point", "coordinates": [-122.431749, 37.786329]}, "type": "Feature", "properties": {"city": "San Francisco", "name": "Customer  226", "zip": "94115", "sales": "10.59", "state": "CA", "cust_id": "226", "location": "1921 Sutter St San Francisco, CA 94115", "address": "1921 Sutter St", "zip_code": "94115", "store_id": "1"}}, {"geometry": {"type": "Point", "coordinates": [-122.438779, 37.721092]}, "type": "Feature", "properties": {"city": "San Francisco", "name": "Customer  227", "zip": "94112", "sales": "33.56", "state": "CA", "cust_id": "227", "location": "1923 Alemany Blvd San Francisco, CA 94112", "address": "1923 Alemany Blvd", "zip_code": "94112", "store_id": "2"}}, {"geometry": {"type": "Point", "coordinates": [-122.437632, 37.781779]}, "type": "Feature", "properties": {"city": "San Francisco", "name": "Customer  228", "zip": "94115", "sales": "22.18", "state": "CA", "cust_id": "228", "location": "1925 Ellis St San Francisco, CA 94115", "address": "1925 Ellis St", "zip_code": "94115", "store_id": "1"}}, {"geometry": {"type": "Point", "coordinates": [-122.448318, 37.775474]}, "type": "Feature", "properties": {"city": "San Francisco", "name": "Customer  229", "zip": "94117", "sales": "1.09", "state": "CA", "cust_id": "229", "location": "1925 Fulton St San Francisco, CA 94117", "address": "1925 Fulton St", "zip_code": "94117", "store_id": "1"}}, {"geometry": {"type": "Point", "coordinates": [-122.382599, 37.72934]}, "type": "Feature", "properties": {"city": "San Francisco", "name": "Customer  23", "zip": "94124", "sales": "28.31", "state": "CA", "cust_id": "23", "location": "1150 Palou Ave San Francisco, CA 94124", "address": "1150 Palou Ave", "zip_code": "94124", "store_id": "2"}}, {"geometry": {"type": "Point", "coordinates": [-122.433329, 37.785186]}, "type": "Feature", "properties": {"city": "San Francisco", "name": "Customer  230", "zip": "94115", "sales": "1.19", "state": "CA", "cust_id": "230", "location": "1926 Post St San Francisco, CA 94115", "address": "1926 Post St", "zip_code": "94115", "store_id": "1"}}, {"geometry": {"type": "Point", "coordinates": [-122.401791, 37.762178]}, "type": "Feature", "properties": {"city": "San Francisco", "name": "Customer  231", "zip": "94107", "sales": "19.9", "state": "CA", "cust_id": "231", "location": "1950 18th St San Francisco, CA 94107", "address": "1950 18th St", "zip_code": "94107", "store_id": "1"}}, {"geometry": {"type": "Point", "coordinates": [-122.400391, 37.757229]}, "type": "Feature", "properties": {"city": "San Francisco", "name": "Customer  232", "zip": "94107", "sales": "108.9", "state": "CA", "cust_id": "232", "location": "1950 22nd St San Francisco, CA 94107", "address": "1950 22nd St", "zip_code": "94107", "store_id": "2"}}, {"geometry": {"type": "Point", "coordinates": [-122.425, 37.791926]}, "type": "Feature", "properties": {"city": "San Francisco", "name": "Customer  233", "zip": "94109", "sales": "34.16", "state": "CA", "cust_id": "233", "location": "1950 Clay St San Francisco, CA 94109", "address": "1950 Clay St", "zip_code": "94109", "store_id": "1"}}, {"geometry": {"type": "Point", "coordinates": [-122.439549, 37.780527]}, "type": "Feature", "properties": {"city": "San Francisco", "name": "Customer  234", "zip": "94115", "sales": "17.03", "state": "CA", "cust_id": "234", "location": "1950 Eddy St San Francisco, CA 94115", "address": "1950 Eddy St", "zip_code": "94115", "store_id": "1"}}, {"geometry": {"type": "Point", "coordinates": [-122.435215, 37.783928]}, "type": "Feature", "properties": {"city": "San Francisco", "name": "Customer  235", "zip": "94115", "sales": "92.66", "state": "CA", "cust_id": "235", "location": "1950 Geary Blvd San Francisco, CA 94115", "address": "1950 Geary Blvd", "zip_code": "94115", "store_id": "1"}}, {"geometry": {"type": "Point", "coordinates": [-122.442498, 37.778176]}, "type": "Feature", "properties": {"city": "San Francisco", "name": "Customer  236", "zip": "94115", "sales": "32.17", "state": "CA", "cust_id": "236", "location": "1950 Golden Gate Ave San Francisco, CA 94115", "address": "1950 Golden Gate Ave", "zip_code": "94115", "store_id": "1"}}, {"geometry": {"type": "Point", "coordinates": [-122.443722, 37.777049]}, "type": "Feature", "properties": {"city": "San Francisco", "name": "Customer  237", "zip": "94115", "sales": "49.4", "state": "CA", "cust_id": "237", "location": "1950 McAllister St San Francisco, CA 94115", "address": "1950 McAllister St", "zip_code": "94115", "store_id": "2"}}, {"geometry": {"type": "Point", "coordinates": [-122.427233, 37.790237]}, "type": "Feature", "properties": {"city": "San Francisco", "name": "Customer  238", "zip": "94109", "sales": "1.68", "state": "CA", "cust_id": "238", "location": "1950 Octavia St San Francisco, CA 94109", "address": "1950 Octavia St", "zip_code": "94109", "store_id": "1"}}, {"geometry": {"type": "Point", "coordinates": [-122.436615, 37.782826]}, "type": "Feature", "properties": {"city": "San Francisco", "name": "Customer  239", "zip": "94115", "sales": "10.79", "state": "CA", "cust_id": "239", "location": "1950 Ofarrell St San Francisco, CA 94115", "address": "1950 Ofarrell St", "zip_code": "94115", "store_id": "1"}}, {"geometry": {"type": "Point", "coordinates": [-122.422282, 37.781829]}, "type": "Feature", "properties": {"city": "San Francisco", "name": "Customer  24", "zip": "94115", "sales": "41.78", "state": "CA", "cust_id": "24", "location": "1150 Turk St San Francisco, CA 94115", "address": "1150 Turk St", "zip_code": "94102", "store_id": "1"}}, {"geometry": {"type": "Point", "coordinates": [-122.427849, 37.788776]}, "type": "Feature", "properties": {"city": "San Francisco", "name": "Customer  240", "zip": "94109", "sales": "40", "state": "CA", "cust_id": "240", "location": "1950 Pine St San Francisco, CA 94109", "address": "1950 Pine St", "zip_code": "94109", "store_id": "1"}}, {"geometry": {"type": "Point", "coordinates": [-122.429249, 37.795926]}, "type": "Feature", "properties": {"city": "San Francisco", "name": "Customer  241", "zip": "94123", "sales": "9.4", "state": "CA", "cust_id": "241", "location": "1950 Vallejo St San Francisco, CA 94123", "address": "1950 Vallejo St", "zip_code": "94123", "store_id": "1"}}, {"geometry": {"type": "Point", "coordinates": [-122.425249, 37.792826]}, "type": "Feature", "properties": {"city": "San Francisco", "name": "Customer  242", "zip": "94109", "sales": "10.79", "state": "CA", "cust_id": "242", "location": "1950 Washington St San Francisco, CA 94109", "address": "1950 Washington St", "zip_code": "94109", "store_id": "1"}}, {"geometry": {"type": "Point", "coordinates": [-122.445078, 37.74564]}, "type": "Feature", "properties": {"city": "San Francisco", "name": "Customer  243", "zip": "94131", "sales": "32.47", "state": "CA", "cust_id": "243", "location": "197 Amber Dr San Francisco, CA 94131", "address": "197 Amber Dr", "zip_code": "94131", "store_id": "2"}}, {"geometry": {"type": "Point", "coordinates": [-122.432367, 37.730585]}, "type": "Feature", "properties": {"city": "San Francisco", "name": "Customer  244", "zip": "94112", "sales": "86.23", "state": "CA", "cust_id": "244", "location": "197 Cayuga Ave San Francisco, CA 94112", "address": "197 Cayuga Ave", "zip_code": "94112", "store_id": "2"}}, {"geometry": {"type": "Point", "coordinates": [-122.438541, 37.781672]}, "type": "Feature", "properties": {"city": "San Francisco", "name": "Customer  245", "zip": "94115", "sales": "11.88", "state": "CA", "cust_id": "245", "location": "1975 Ellis St San Francisco, CA 94115", "address": "1975 Ellis St", "zip_code": "94115", "store_id": "1"}}, {"geometry": {"type": "Point", "coordinates": [-122.444732, 37.779829]}, "type": "Feature", "properties": {"city": "San Francisco", "name": "Customer  246", "zip": "94115", "sales": "31.58", "state": "CA", "cust_id": "246", "location": "199 Anzavista Ave San Francisco, CA 94115", "address": "199 Anzavista Ave", "zip_code": "94115", "store_id": "1"}}, {"geometry": {"type": "Point", "coordinates": [-122.447293, 37.784999]}, "type": "Feature", "properties": {"city": "San Francisco", "name": "Customer  247", "zip": "94118", "sales": "6.73", "state": "CA", "cust_id": "247", "location": "20 Masonic Ave San Francisco, CA 94118", "address": "20 Masonic Ave", "zip_code": "94118", "store_id": "1"}}, {"geometry": {"type": "Point", "coordinates": [-122.449182, 37.768629]}, "type": "Feature", "properties": {"city": "San Francisco", "name": "Customer  248", "zip": "94117", "sales": "35.94", "state": "CA", "cust_id": "248", "location": "200 Belvedere St San Francisco, CA 94117", "address": "200 Belvedere St", "zip_code": "94117", "store_id": "2"}}, {"geometry": {"type": "Point", "coordinates": [-122.446578, 37.765312]}, "type": "Feature", "properties": {"city": "San Francisco", "name": "Customer  249", "zip": "94117", "sales": "35.34", "state": "CA", "cust_id": "249", "location": "200 Downey St San Francisco, CA 94117", "address": "200 Downey St", "zip_code": "94117", "store_id": "1"}}, {"geometry": {"type": "Point", "coordinates": [-122.421031, 37.754514]}, "type": "Feature", "properties": {"city": "San Francisco", "name": "Customer  25", "zip": "94110", "sales": "73.75", "state": "CA", "cust_id": "25", "location": "1150 Valencia St San Francisco, CA 94110", "address": "1150 Valencia St", "zip_code": "94110", "store_id": "2"}}, {"geometry": {"type": "Point", "coordinates": [-122.471682, 37.749561]}, "type": "Feature", "properties": {"city": "San Francisco", "name": "Customer  250", "zip": "94116", "sales": "11.68", "state": "CA", "cust_id": "250", "location": "2050 15th Ave San Francisco, CA 94116", "address": "2050 15th Ave", "zip_code": "94116", "store_id": "2"}}, {"geometry": {"type": "Point", "coordinates": [-122.469994, 37.778778]}, "type": "Feature", "properties": {"city": "San Francisco", "name": "Customer  251", "zip": "94118", "sales": "65.84", "state": "CA", "cust_id": "251", "location": "2050 Anza St San Francisco, CA 94118", "address": "2050 Anza St", "zip_code": "94118", "store_id": "1"}}, {"geometry": {"type": "Point", "coordinates": [-122.430949, 37.787427]}, "type": "Feature", "properties": {"city": "San Francisco", "name": "Customer  252", "zip": "94115", "sales": "33.16", "state": "CA", "cust_id": "252", "location": "2050 Bush St San Francisco, CA 94115", "address": "2050 Bush St", "zip_code": "94115", "store_id": "1"}}, {"geometry": {"type": "Point", "coordinates": [-122.480492, 37.774478]}, "type": "Feature", "properties": {"city": "San Francisco", "name": "Customer  253", "zip": "94121", "sales": "40.79", "state": "CA", "cust_id": "253", "location": "2050 Cabrillo St San Francisco, CA 94121", "address": "2050 Cabrillo St", "zip_code": "94121", "store_id": "1"}}, {"geometry": {"type": "Point", "coordinates": [-122.436882, 37.783726]}, "type": "Feature", "properties": {"city": "San Francisco", "name": "Customer  254", "zip": "94115", "sales": "6.34", "state": "CA", "cust_id": "254", "location": "2050 Geary Blvd San Francisco, CA 94115", "address": "2050 Geary Blvd", "zip_code": "94115", "store_id": "1"}}, {"geometry": {"type": "Point", "coordinates": [-122.428649, 37.793326]}, "type": "Feature", "properties": {"city": "San Francisco", "name": "Customer  255", "zip": "94109", "sales": "1.48", "state": "CA", "cust_id": "255", "location": "2050 Jackson St San Francisco, CA 94109", "address": "2050 Jackson St", "zip_code": "94109", "store_id": "1"}}, {"geometry": {"type": "Point", "coordinates": [-122.428884, 37.790086]}, "type": "Feature", "properties": {"city": "San Francisco", "name": "Customer  256", "zip": "94115", "sales": "8.61", "state": "CA", "cust_id": "256", "location": "2050 Laguna St San Francisco, CA 94115", "address": "2050 Laguna St", "zip_code": "94115", "store_id": "1"}}, {"geometry": {"type": "Point", "coordinates": [-122.429447, 37.788527]}, "type": "Feature", "properties": {"city": "San Francisco", "name": "Customer  257", "zip": "94115", "sales": "2.18", "state": "CA", "cust_id": "257", "location": "2050 Pine St San Francisco, CA 94115", "address": "2050 Pine St", "zip_code": "94115", "store_id": "1"}}, {"geometry": {"type": "Point", "coordinates": [-122.435449, 37.784927]}, "type": "Feature", "properties": {"city": "San Francisco", "name": "Customer  258", "zip": "94115", "sales": "178.99", "state": "CA", "cust_id": "258", "location": "2050 Post St San Francisco, CA 94115", "address": "2050 Post St", "zip_code": "94115", "store_id": "1"}}, {"geometry": {"type": "Point", "coordinates": [-122.426498, 37.790776]}, "type": "Feature", "properties": {"city": "San Francisco", "name": "Customer  259", "zip": "94109", "sales": "23.27", "state": "CA", "cust_id": "259", "location": "2050 Sacramento St San Francisco, CA 94109", "address": "2050 Sacramento St", "zip_code": "94109", "store_id": "1"}}, {"geometry": {"type": "Point", "coordinates": [-122.421373, 37.786246]}, "type": "Feature", "properties": {"city": "San Francisco", "name": "Customer  26", "zip": "94109", "sales": "104.45", "state": "CA", "cust_id": "26", "location": "1150 Van Ness Ave San Francisco, CA 94109", "address": "1150 Van Ness Ave", "zip_code": "94109", "store_id": "2"}}, {"geometry": {"type": "Point", "coordinates": [-122.438735, 37.788839]}, "type": "Feature", "properties": {"city": "San Francisco", "name": "Customer  260", "zip": "94115", "sales": "16.93", "state": "CA", "cust_id": "260", "location": "2050 Scott St San Francisco, CA 94115", "address": "2050 Scott St", "zip_code": "94115", "store_id": "1"}}, {"geometry": {"type": "Point", "coordinates": [-122.430898, 37.795726]}, "type": "Feature", "properties": {"city": "San Francisco", "name": "Customer  261", "zip": "94123", "sales": "18.51", "state": "CA", "cust_id": "261", "location": "2050 Vallejo St San Francisco, CA 94123", "address": "2050 Vallejo St", "zip_code": "94123", "store_id": "1"}}, {"geometry": {"type": "Point", "coordinates": [-122.428498, 37.754401]}, "type": "Feature", "properties": {"city": "San Francisco", "name": "Customer  262", "zip": "94114", "sales": "43.96", "state": "CA", "cust_id": "262", "location": "21 Vicksburg St San Francisco, CA 94114", "address": "21 Vicksburg St", "zip_code": "94114", "store_id": "2"}}, {"geometry": {"type": "Point", "coordinates": [-122.464724, 37.749198]}, "type": "Feature", "properties": {"city": "San Francisco", "name": "Customer  263", "zip": "94116", "sales": "42.37", "state": "CA", "cust_id": "263", "location": "2118 9th Ave San Francisco, CA 94116", "address": "2118 9th Ave", "zip_code": "94116", "store_id": "2"}}, {"geometry": {"type": "Point", "coordinates": [-122.429598, 37.789576]}, "type": "Feature", "properties": {"city": "San Francisco", "name": "Customer  264", "zip": "94115", "sales": "18.51", "state": "CA", "cust_id": "264", "location": "2150 California St San Francisco, CA 94115", "address": "2150 California St", "zip_code": "94115", "store_id": "1"}}, {"geometry": {"type": "Point", "coordinates": [-122.433131, 37.744422]}, "type": "Feature", "properties": {"city": "San Francisco", "name": "Customer  265", "zip": "94131", "sales": "30.1", "state": "CA", "cust_id": "265", "location": "2150 Castro St San Francisco, CA 94131", "address": "2150 Castro St", "zip_code": "94131", "store_id": "2"}}, {"geometry": {"type": "Point", "coordinates": [-122.440633, 37.789539]}, "type": "Feature", "properties": {"city": "San Francisco", "name": "Customer  266", "zip": "94115", "sales": "31.78", "state": "CA", "cust_id": "266", "location": "2150 Divisadero St San Francisco, CA 94115", "address": "2150 Divisadero St", "zip_code": "94115", "store_id": "1"}}, {"geometry": {"type": "Point", "coordinates": [-122.434849, 37.798126]}, "type": "Feature", "properties": {"city": "San Francisco", "name": "Customer  267", "zip": "94123", "sales": "34.95", "state": "CA", "cust_id": "267", "location": "2150 Filbert St San Francisco, CA 94123", "address": "2150 Filbert St", "zip_code": "94123", "store_id": "1"}}, {"geometry": {"type": "Point", "coordinates": [-122.4516, 37.773127]}, "type": "Feature", "properties": {"city": "San Francisco", "name": "Customer  268", "zip": "94117", "sales": "26.93", "state": "CA", "cust_id": "268", "location": "2150 Hayes St San Francisco, CA 94117", "address": "2150 Hayes St", "zip_code": "94117", "store_id": "1"}}, {"geometry": {"type": "Point", "coordinates": [-122.388987, 37.726573]}, "type": "Feature", "properties": {"city": "San Francisco", "name": "Customer  269", "zip": "94124", "sales": "38.91", "state": "CA", "cust_id": "269", "location": "2150 Jennings St San Francisco, CA 94124", "address": "2150 Jennings St", "zip_code": "94124", "store_id": "2"}}, {"geometry": {"type": "Point", "coordinates": [-122.441761, 37.719473]}, "type": "Feature", "properties": {"city": "San Francisco", "name": "Customer  27", "zip": "94112", "sales": "183.45", "state": "CA", "cust_id": "27", "location": "1180 Cayuga Ave San Francisco, CA 94112", "address": "1180 Cayuga Ave", "zip_code": "94112", "store_id": "2"}}, {"geometry": {"type": "Point", "coordinates": [-122.439998, 37.782376]}, "type": "Feature", "properties": {"city": "San Francisco", "name": "Customer  270", "zip": "94115", "sales": "152.26", "state": "CA", "cust_id": "270", "location": "2150 Ofarrell St San Francisco, CA 94115", "address": "2150 Ofarrell St", "zip_code": "94115", "store_id": "1"}}, {"geometry": {"type": "Point", "coordinates": [-122.437098, 37.784727]}, "type": "Feature", "properties": {"city": "San Francisco", "name": "Customer  271", "zip": "94115", "sales": "11.39", "state": "CA", "cust_id": "271", "location": "2150 Post St San Francisco, CA 94115", "address": "2150 Post St", "zip_code": "94115", "store_id": "1"}}, {"geometry": {"type": "Point", "coordinates": [-122.432549, 37.795526]}, "type": "Feature", "properties": {"city": "San Francisco", "name": "Customer  272", "zip": "94123", "sales": "31.48", "state": "CA", "cust_id": "272", "location": "2150 Vallejo St San Francisco, CA 94123", "address": "2150 Vallejo St", "zip_code": "94123", "store_id": "1"}}, {"geometry": {"type": "Point", "coordinates": [-122.430558, 37.792976]}, "type": "Feature", "properties": {"city": "San Francisco", "name": "Customer  273", "zip": "94115", "sales": "24.16", "state": "CA", "cust_id": "273", "location": "2163 Jackson St San Francisco, CA 94115", "address": "2163 Jackson St", "zip_code": "94115", "store_id": "1"}}, {"geometry": {"type": "Point", "coordinates": [-122.420495, 37.742555]}, "type": "Feature", "properties": {"city": "San Francisco", "name": "Customer  274", "zip": "94110", "sales": "43.76", "state": "CA", "cust_id": "274", "location": "218 Coleridge St San Francisco, CA 94110", "address": "218 Coleridge St", "zip_code": "94110", "store_id": "2"}}, {"geometry": {"type": "Point", "coordinates": [-122.433016, 37.794549]}, "type": "Feature", "properties": {"city": "San Francisco", "name": "Customer  275", "zip": "94115", "sales": "173.25", "state": "CA", "cust_id": "275", "location": "2181 Broadway St San Francisco, CA 94115", "address": "2181 Broadway St", "zip_code": "94115", "store_id": "1"}}, {"geometry": {"type": "Point", "coordinates": [-122.447132, 37.777564]}, "type": "Feature", "properties": {"city": "San Francisco", "name": "Customer  276", "zip": "94118", "sales": "25.64", "state": "CA", "cust_id": "276", "location": "2226 Golden Gate Ave San Francisco, CA 94118", "address": "2226 Golden Gate Ave", "zip_code": "94118", "store_id": "1"}}, {"geometry": {"type": "Point", "coordinates": [-122.432616, 37.739587]}, "type": "Feature", "properties": {"city": "San Francisco", "name": "Customer  277", "zip": "94131", "sales": "153.25", "state": "CA", "cust_id": "277", "location": "224 Addison St San Francisco, CA 94131", "address": "224 Addison St", "zip_code": "94131", "store_id": "2"}}, {"geometry": {"type": "Point", "coordinates": [-122.432732, 37.729381]}, "type": "Feature", "properties": {"city": "San Francisco", "name": "Customer  278", "zip": "94112", "sales": "108.01", "state": "CA", "cust_id": "278", "location": "224 Silver Ave San Francisco, CA 94112", "address": "224 Silver Ave", "zip_code": "94112", "store_id": "2"}}, {"geometry": {"type": "Point", "coordinates": [-122.42472, 37.742184]}, "type": "Feature", "properties": {"city": "San Francisco", "name": "Customer  279", "zip": "94131", "sales": "25.74", "state": "CA", "cust_id": "279", "location": "225 30th St San Francisco, CA 94131", "address": "225 30th St", "zip_code": "94131", "store_id": "2"}}, {"geometry": {"type": "Point", "coordinates": [-122.430129, 37.732757]}, "type": "Feature", "properties": {"city": "San Francisco", "name": "Customer  28", "zip": "94112", "sales": "173.84", "state": "CA", "cust_id": "28", "location": "120 Rousseau St San Francisco, CA 94112", "address": "120 Rousseau St", "zip_code": "94112", "store_id": "2"}}, {"geometry": {"type": "Point", "coordinates": [-122.42308, 37.774952]}, "type": "Feature", "properties": {"city": "San Francisco", "name": "Customer  280", "zip": "94102", "sales": "48.81", "state": "CA", "cust_id": "280", "location": "225 Oak St San Francisco, CA 94102", "address": "225 Oak St", "zip_code": "94102", "store_id": "2"}}, {"geometry": {"type": "Point", "coordinates": [-122.42395, 37.774163]}, "type": "Feature", "properties": {"city": "San Francisco", "name": "Customer  281", "zip": "94102", "sales": "10", "state": "CA", "cust_id": "281", "location": "225 Octavia St San Francisco, CA 94102", "address": "225 Octavia St", "zip_code": "94102", "store_id": "1"}}, {"geometry": {"type": "Point", "coordinates": [-122.440435, 37.724026]}, "type": "Feature", "properties": {"city": "San Francisco", "name": "Customer  282", "zip": "94112", "sales": "53.56", "state": "CA", "cust_id": "282", "location": "225 Otsego Ave San Francisco, CA 94112", "address": "225 Otsego Ave", "zip_code": "94112", "store_id": "2"}}, {"geometry": {"type": "Point", "coordinates": [-122.428032, 37.73978]}, "type": "Feature", "properties": {"city": "San Francisco", "name": "Customer  283", "zip": "94131", "sales": "2.57", "state": "CA", "cust_id": "283", "location": "225 Randall St San Francisco, CA 94131", "address": "225 Randall St", "zip_code": "94131", "store_id": "2"}}, {"geometry": {"type": "Point", "coordinates": [-122.438482, 37.727931]}, "type": "Feature", "properties": {"city": "San Francisco", "name": "Customer  284", "zip": "94112", "sales": "158.4", "state": "CA", "cust_id": "284", "location": "225 Santa Rosa Ave San Francisco, CA 94112", "address": "225 Santa Rosa Ave", "zip_code": "94112", "store_id": "2"}}, {"geometry": {"type": "Point", "coordinates": [-122.49068, 37.744912]}, "type": "Feature", "properties": {"city": "San Francisco", "name": "Customer  285", "zip": "94116", "sales": "31.19", "state": "CA", "cust_id": "285", "location": "2250 33rd Ave San Francisco, CA 94116", "address": "2250 33rd Ave", "zip_code": "94116", "store_id": "2"}}, {"geometry": {"type": "Point", "coordinates": [-122.434149, 37.786976]}, "type": "Feature", "properties": {"city": "San Francisco", "name": "Customer  286", "zip": "94115", "sales": "28.61", "state": "CA", "cust_id": "286", "location": "2250 Bush St San Francisco, CA 94115", "address": "2250 Bush St", "zip_code": "94115", "store_id": "1"}}, {"geometry": {"type": "Point", "coordinates": [-122.431249, 37.789327]}, "type": "Feature", "properties": {"city": "San Francisco", "name": "Customer  287", "zip": "94115", "sales": "36.43", "state": "CA", "cust_id": "287", "location": "2250 California St San Francisco, CA 94115", "address": "2250 California St", "zip_code": "94115", "store_id": "1"}}, {"geometry": {"type": "Point", "coordinates": [-122.429998, 37.791227]}, "type": "Feature", "properties": {"city": "San Francisco", "name": "Customer  288", "zip": "94115", "sales": "14.26", "state": "CA", "cust_id": "288", "location": "2250 Clay St San Francisco, CA 94115", "address": "2250 Clay St", "zip_code": "94115", "store_id": "1"}}, {"geometry": {"type": "Point", "coordinates": [-122.440198, 37.783327]}, "type": "Feature", "properties": {"city": "San Francisco", "name": "Customer  289", "zip": "94115", "sales": "6.83", "state": "CA", "cust_id": "289", "location": "2250 Geary Blvd San Francisco, CA 94115", "address": "2250 Geary Blvd", "zip_code": "94115", "store_id": "1"}}, {"geometry": {"type": "Point", "coordinates": [-122.425849, 37.783327]}, "type": "Feature", "properties": {"city": "San Francisco", "name": "Customer  29", "zip": "94109", "sales": "40.09", "state": "CA", "cust_id": "29", "location": "1200 Ellis St San Francisco, CA 94109", "address": "1200 Ellis St", "zip_code": "94109", "store_id": "1"}}, {"geometry": {"type": "Point", "coordinates": [-122.427684, 37.792987]}, "type": "Feature", "properties": {"city": "San Francisco", "name": "Customer  290", "zip": "94109", "sales": "14.45", "state": "CA", "cust_id": "290", "location": "2250 Octavia St San Francisco, CA 94109", "address": "2250 Octavia St", "zip_code": "94109", "store_id": "1"}}, {"geometry": {"type": "Point", "coordinates": [-122.438771, 37.784497]}, "type": "Feature", "properties": {"city": "San Francisco", "name": "Customer  291", "zip": "94115", "sales": "161.37", "state": "CA", "cust_id": "291", "location": "2250 Post St San Francisco, CA 94115", "address": "2250 Post St", "zip_code": "94115", "store_id": "1"}}, {"geometry": {"type": "Point", "coordinates": [-122.429798, 37.790378]}, "type": "Feature", "properties": {"city": "San Francisco", "name": "Customer  292", "zip": "94115", "sales": "3.37", "state": "CA", "cust_id": "292", "location": "2250 Sacramento St San Francisco, CA 94115", "address": "2250 Sacramento St", "zip_code": "94115", "store_id": "1"}}, {"geometry": {"type": "Point", "coordinates": [-122.437298, 37.785627]}, "type": "Feature", "properties": {"city": "San Francisco", "name": "Customer  293", "zip": "94115", "sales": "16.04", "state": "CA", "cust_id": "293", "location": "2250 Sutter St San Francisco, CA 94115", "address": "2250 Sutter St", "zip_code": "94115", "store_id": "1"}}, {"geometry": {"type": "Point", "coordinates": [-122.432484, 37.791388]}, "type": "Feature", "properties": {"city": "San Francisco", "name": "Customer  294", "zip": "94115", "sales": "94.15", "state": "CA", "cust_id": "294", "location": "2250 Webster St San Francisco, CA 94115", "address": "2250 Webster St", "zip_code": "94115", "store_id": "1"}}, {"geometry": {"type": "Point", "coordinates": [-122.443182, 37.761397]}, "type": "Feature", "properties": {"city": "San Francisco", "name": "Customer  295", "zip": "94114", "sales": "49.01", "state": "CA", "cust_id": "295", "location": "228 Corbett Ave San Francisco, CA 94114", "address": "228 Corbett Ave", "zip_code": "94114", "store_id": "2"}}, {"geometry": {"type": "Point", "coordinates": [-122.431049, 37.72991]}, "type": "Feature", "properties": {"city": "San Francisco", "name": "Customer  296", "zip": "94112", "sales": "112.27", "state": "CA", "cust_id": "296", "location": "23 Camellia Ave San Francisco, CA 94112", "address": "23 Camellia Ave", "zip_code": "94112", "store_id": "2"}}, {"geometry": {"type": "Point", "coordinates": [-122.449082, 37.737465]}, "type": "Feature", "properties": {"city": "San Francisco", "name": "Customer  297", "zip": "94127", "sales": "84.05", "state": "CA", "cust_id": "297", "location": "123 Dorcas Way San Francisco, CA 94127", "address": "123 Dorcas Way", "zip_code": "94127", "store_id": "2"}}, {"geometry": {"type": "Point", "coordinates": [-122.433252, 37.736137]}, "type": "Feature", "properties": {"city": "San Francisco", "name": "Customer  298", "zip": "94131", "sales": "41.18", "state": "CA", "cust_id": "298", "location": "23 Sussex St San Francisco, CA 94131", "address": "23 Sussex St", "zip_code": "94131", "store_id": "2"}}, {"geometry": {"type": "Point", "coordinates": [-122.421079, 37.749991]}, "type": "Feature", "properties": {"city": "San Francisco", "name": "Customer  299", "zip": "94110", "sales": "131.67", "state": "CA", "cust_id": "299", "location": "232 Poplar St San Francisco, CA 94110", "address": "232 Poplar St", "zip_code": "94110", "store_id": "2"}}, {"geometry": {"type": "Point", "coordinates": [-122.422282, 37.781829]}, "type": "Feature", "properties": {"city": "San Francisco", "name": "Customer  3", "zip": "94102", "sales": "13.86", "state": "CA", "cust_id": "3", "location": "1000 Turk St San Francisco, CA 94102", "address": "1000 Turk St", "zip_code": "94102", "store_id": "1"}}, {"geometry": {"type": "Point", "coordinates": [-122.444396, 37.744973]}, "type": "Feature", "properties": {"city": "San Francisco", "name": "Customer  30", "zip": "94131", "sales": "129.99", "state": "CA", "cust_id": "30", "location": "122 Turquoise Way San Francisco, CA 94131", "address": "122 Turquoise Way", "zip_code": "94131", "store_id": "2"}}, {"geometry": {"type": "Point", "coordinates": [-122.448115, 37.758097]}, "type": "Feature", "properties": {"city": "San Francisco", "name": "Customer  300", "zip": "94114", "sales": "102.76", "state": "CA", "cust_id": "300", "location": "232 Twin Peaks Blvd San Francisco, CA 94114", "address": "232 Twin Peaks Blvd", "zip_code": "94114", "store_id": "2"}}, {"geometry": {"type": "Point", "coordinates": [-122.44003, 37.784312]}, "type": "Feature", "properties": {"city": "San Francisco", "name": "Customer  301", "zip": "94115", "sales": "21.98", "state": "CA", "cust_id": "301", "location": "2325 Post St San Francisco, CA 94115", "address": "2325 Post St", "zip_code": "94115", "store_id": "1"}}, {"geometry": {"type": "Point", "coordinates": [-122.441711, 37.72497]}, "type": "Feature", "properties": {"city": "San Francisco", "name": "Customer  302", "zip": "94112", "sales": "186.71", "state": "CA", "cust_id": "302", "location": "233 Delano Ave San Francisco, CA 94112", "address": "233 Delano Ave", "zip_code": "94112", "store_id": "2"}}, {"geometry": {"type": "Point", "coordinates": [-122.47558, 37.743812]}, "type": "Feature", "properties": {"city": "San Francisco", "name": "Customer  303", "zip": "94116", "sales": "181.96", "state": "CA", "cust_id": "303", "location": "2350 19th Ave San Francisco, CA 94116", "address": "2350 19th Ave", "zip_code": "94116", "store_id": "1"}}, {"geometry": {"type": "Point", "coordinates": [-122.435798, 37.786778]}, "type": "Feature", "properties": {"city": "San Francisco", "name": "Customer  304", "zip": "94115", "sales": "104.25", "state": "CA", "cust_id": "304", "location": "2350 Bush St San Francisco, CA 94115", "address": "2350 Bush St", "zip_code": "94115", "store_id": "1"}}, {"geometry": {"type": "Point", "coordinates": [-122.414779, 37.759664]}, "type": "Feature", "properties": {"city": "San Francisco", "name": "Customer  305", "zip": "94110", "sales": "40.09", "state": "CA", "cust_id": "305", "location": "2350 Folsom St San Francisco, CA 94110", "address": "2350 Folsom St", "zip_code": "94110", "store_id": "2"}}, {"geometry": {"type": "Point", "coordinates": [-122.426484, 37.794887]}, "type": "Feature", "properties": {"city": "San Francisco", "name": "Customer  306", "zip": "94109", "sales": "37.32", "state": "CA", "cust_id": "306", "location": "2350 Gough St San Francisco, CA 94109", "address": "2350 Gough St", "zip_code": "94109", "store_id": "1"}}, {"geometry": {"type": "Point", "coordinates": [-122.433598, 37.792627]}, "type": "Feature", "properties": {"city": "San Francisco", "name": "Customer  307", "zip": "94115", "sales": "38.71", "state": "CA", "cust_id": "307", "location": "2350 Jackson St San Francisco, CA 94115", "address": "2350 Jackson St", "zip_code": "94115", "store_id": "1"}}, {"geometry": {"type": "Point", "coordinates": [-122.427884, 37.793836]}, "type": "Feature", "properties": {"city": "San Francisco", "name": "Customer  308", "zip": "94109", "sales": "9.6", "state": "CA", "cust_id": "308", "location": "2350 Octavia St San Francisco, CA 94109", "address": "2350 Octavia St", "zip_code": "94109", "store_id": "1"}}, {"geometry": {"type": "Point", "coordinates": [-122.434398, 37.787927]}, "type": "Feature", "properties": {"city": "San Francisco", "name": "Customer  309", "zip": "94115", "sales": "37.82", "state": "CA", "cust_id": "309", "location": "2350 Pine St San Francisco, CA 94115", "address": "2350 Pine St", "zip_code": "94115", "store_id": "1"}}, {"geometry": {"type": "Point", "coordinates": [-122.417364, 37.789181]}, "type": "Feature", "properties": {"city": "San Francisco", "name": "Customer  31", "zip": "94109", "sales": "6.63", "state": "CA", "cust_id": "31", "location": "1221 Bush St San Francisco, CA 94109", "address": "1221 Bush St", "zip_code": "94109", "store_id": "1"}}, {"geometry": {"type": "Point", "coordinates": [-122.435798, 37.795077]}, "type": "Feature", "properties": {"city": "San Francisco", "name": "Customer  310", "zip": "94123", "sales": "17.72", "state": "CA", "cust_id": "310", "location": "2350 Vallejo St San Francisco, CA 94123", "address": "2350 Vallejo St", "zip_code": "94123", "store_id": "1"}}, {"geometry": {"type": "Point", "coordinates": [-122.431798, 37.791927]}, "type": "Feature", "properties": {"city": "San Francisco", "name": "Customer  311", "zip": "94115", "sales": "1.88", "state": "CA", "cust_id": "311", "location": "2350 Washington St San Francisco, CA 94115", "address": "2350 Washington St", "zip_code": "94115", "store_id": "1"}}, {"geometry": {"type": "Point", "coordinates": [-122.422252, 37.733121]}, "type": "Feature", "properties": {"city": "San Francisco", "name": "Customer  312", "zip": "94112", "sales": "47.02", "state": "CA", "cust_id": "312", "location": "237 Benton Ave San Francisco, CA 94112", "address": "237 Benton Ave", "zip_code": "94112", "store_id": "2"}}, {"geometry": {"type": "Point", "coordinates": [-122.434886, 37.730135]}, "type": "Feature", "properties": {"city": "San Francisco", "name": "Customer  313", "zip": "94112", "sales": "118.11", "state": "CA", "cust_id": "313", "location": "237 Tingley St San Francisco, CA 94112", "address": "237 Tingley St", "zip_code": "94112", "store_id": "2"}}, {"geometry": {"type": "Point", "coordinates": [-122.432342, 37.733796]}, "type": "Feature", "properties": {"city": "San Francisco", "name": "Customer  314", "zip": "94131", "sales": "35.14", "state": "CA", "cust_id": "314", "location": "24 Wilder St San Francisco, CA 94131", "address": "24 Wilder St", "zip_code": "94131", "store_id": "2"}}, {"geometry": {"type": "Point", "coordinates": [-122.445986, 37.717145]}, "type": "Feature", "properties": {"city": "San Francisco", "name": "Customer  315", "zip": "94112", "sales": "165.13", "state": "CA", "cust_id": "315", "location": "245 Mount Vernon Ave San Francisco, CA 94112", "address": "245 Mount Vernon Ave", "zip_code": "94112", "store_id": "2"}}, {"geometry": {"type": "Point", "coordinates": [-122.478629, 37.741761]}, "type": "Feature", "properties": {"city": "San Francisco", "name": "Customer  316", "zip": "94116", "sales": "94.45", "state": "CA", "cust_id": "316", "location": "2450 22nd Ave San Francisco, CA 94116", "address": "2450 22nd Ave", "zip_code": "94116", "store_id": "2"}}, {"geometry": {"type": "Point", "coordinates": [-122.49368, 37.741062]}, "type": "Feature", "properties": {"city": "San Francisco", "name": "Customer  317", "zip": "94116", "sales": "153.05", "state": "CA", "cust_id": "317", "location": "2450 36th Ave San Francisco, CA 94116", "address": "2450 36th Ave", "zip_code": "94116", "store_id": "1"}}, {"geometry": {"type": "Point", "coordinates": [-122.409281, 37.755163]}, "type": "Feature", "properties": {"city": "San Francisco", "name": "Customer  318", "zip": "94110", "sales": "64.94", "state": "CA", "cust_id": "318", "location": "2450 Bryant St San Francisco, CA 94110", "address": "2450 Bryant St", "zip_code": "94110", "store_id": "1"}}, {"geometry": {"type": "Point", "coordinates": [-122.437449, 37.786576]}, "type": "Feature", "properties": {"city": "San Francisco", "name": "Customer  319", "zip": "94115", "sales": "47.42", "state": "CA", "cust_id": "319", "location": "2450 Bush St San Francisco, CA 94115", "address": "2450 Bush St", "zip_code": "94115", "store_id": "1"}}, {"geometry": {"type": "Point", "coordinates": [-122.442357, 37.770489]}, "type": "Feature", "properties": {"city": "San Francisco", "name": "Customer  32", "zip": "94117", "sales": "1.09", "state": "CA", "cust_id": "32", "location": "1235 Haight St San Francisco, CA 94117", "address": "1235 Haight St", "zip_code": "94117", "store_id": "2"}}, {"geometry": {"type": "Point", "coordinates": [-122.434547, 37.788927]}, "type": "Feature", "properties": {"city": "San Francisco", "name": "Customer  320", "zip": "94115", "sales": "31.98", "state": "CA", "cust_id": "320", "location": "2450 California St San Francisco, CA 94115", "address": "2450 California St", "zip_code": "94115", "store_id": "1"}}, {"geometry": {"type": "Point", "coordinates": [-122.434284, 37.792088]}, "type": "Feature", "properties": {"city": "San Francisco", "name": "Customer  321", "zip": "94115", "sales": "25.74", "state": "CA", "cust_id": "321", "location": "2450 Fillmore St San Francisco, CA 94115", "address": "2450 Fillmore St", "zip_code": "94115", "store_id": "1"}}, {"geometry": {"type": "Point", "coordinates": [-122.443547, 37.782927]}, "type": "Feature", "properties": {"city": "San Francisco", "name": "Customer  322", "zip": "94115", "sales": "5.45", "state": "CA", "cust_id": "322", "location": "2450 Geary Blvd San Francisco, CA 94115", "address": "2450 Geary Blvd", "zip_code": "94115", "store_id": "1"}}, {"geometry": {"type": "Point", "coordinates": [-122.487092, 37.75923]}, "type": "Feature", "properties": {"city": "San Francisco", "name": "Customer  323", "zip": "94122", "sales": "99.89", "state": "CA", "cust_id": "323", "location": "2450 Kirkham St San Francisco, CA 94122", "address": "2450 Kirkham St", "zip_code": "94122", "store_id": "1"}}, {"geometry": {"type": "Point", "coordinates": [-122.420884, 37.800538]}, "type": "Feature", "properties": {"city": "San Francisco", "name": "Customer  324", "zip": "94109", "sales": "5.74", "state": "CA", "cust_id": "324", "location": "2450 Larkin St San Francisco, CA 94109", "address": "2450 Larkin St", "zip_code": "94109", "store_id": "1"}}, {"geometry": {"type": "Point", "coordinates": [-122.435998, 37.787727]}, "type": "Feature", "properties": {"city": "San Francisco", "name": "Customer  325", "zip": "94115", "sales": "130.38", "state": "CA", "cust_id": "325", "location": "2450 Pine St San Francisco, CA 94115", "address": "2450 Pine St", "zip_code": "94115", "store_id": "1"}}, {"geometry": {"type": "Point", "coordinates": [-122.437449, 37.794926]}, "type": "Feature", "properties": {"city": "San Francisco", "name": "Customer  326", "zip": "94123", "sales": "46.93", "state": "CA", "cust_id": "326", "location": "2450 Vallejo St San Francisco, CA 94123", "address": "2450 Vallejo St", "zip_code": "94123", "store_id": "1"}}, {"geometry": {"type": "Point", "coordinates": [-122.433398, 37.791727]}, "type": "Feature", "properties": {"city": "San Francisco", "name": "Customer  327", "zip": "94115", "sales": "6.83", "state": "CA", "cust_id": "327", "location": "2450 Washington St San Francisco, CA 94115", "address": "2450 Washington St", "zip_code": "94115", "store_id": "1"}}, {"geometry": {"type": "Point", "coordinates": [-122.440023, 37.727776]}, "type": "Feature", "properties": {"city": "San Francisco", "name": "Customer  328", "zip": "94112", "sales": "15.05", "state": "CA", "cust_id": "328", "location": "249 Santa Ysabel Ave San Francisco, CA 94112", "address": "249 Santa Ysabel Ave", "zip_code": "94112", "store_id": "2"}}, {"geometry": {"type": "Point", "coordinates": [-122.442032, 37.779779]}, "type": "Feature", "properties": {"city": "San Francisco", "name": "Customer  329", "zip": "94115", "sales": "14.45", "state": "CA", "cust_id": "329", "location": "25 Anzavista Ave San Francisco, CA 94115", "address": "25 Anzavista Ave", "zip_code": "94115", "store_id": "1"}}, {"geometry": {"type": "Point", "coordinates": [-122.459282, 37.787929]}, "type": "Feature", "properties": {"city": "San Francisco", "name": "Customer  33", "zip": "94118", "sales": "47.82", "state": "CA", "cust_id": "33", "location": "125 Arguello Blvd San Francisco, CA 94118", "address": "125 Arguello Blvd", "zip_code": "94118", "store_id": "1"}}, {"geometry": {"type": "Point", "coordinates": [-122.436532, 37.723031]}, "type": "Feature", "properties": {"city": "San Francisco", "name": "Customer  330", "zip": "94112", "sales": "8.61", "state": "CA", "cust_id": "330", "location": "25 Ruth St San Francisco, CA 94112", "address": "25 Ruth St", "zip_code": "94112", "store_id": "2"}}, {"geometry": {"type": "Point", "coordinates": [-122.464682, 37.737881]}, "type": "Feature", "properties": {"city": "San Francisco", "name": "Customer  331", "zip": "94127", "sales": "136.52", "state": "CA", "cust_id": "331", "location": "25 Yerba Buena Ave San Francisco, CA 94127", "address": "25 Yerba Buena Ave", "zip_code": "94127", "store_id": "2"}}, {"geometry": {"type": "Point", "coordinates": [-122.427604, 37.745179]}, "type": "Feature", "properties": {"city": "San Francisco", "name": "Customer  332", "zip": "94131", "sales": "30.79", "state": "CA", "cust_id": "332", "location": "250 28th St San Francisco, CA 94131", "address": "250 28th St", "zip_code": "94131", "store_id": "2"}}, {"geometry": {"type": "Point", "coordinates": [-122.425155, 37.743628]}, "type": "Feature", "properties": {"city": "San Francisco", "name": "Customer  333", "zip": "94131", "sales": "40.09", "state": "CA", "cust_id": "333", "location": "250 29th St San Francisco, CA 94131", "address": "250 29th St", "zip_code": "94131", "store_id": "2"}}, {"geometry": {"type": "Point", "coordinates": [-122.467482, 37.783711]}, "type": "Feature", "properties": {"city": "San Francisco", "name": "Customer  334", "zip": "94118", "sales": "2.18", "state": "CA", "cust_id": "334", "location": "250 9th Ave San Francisco, CA 94118", "address": "250 9th Ave", "zip_code": "94118", "store_id": "1"}}, {"geometry": {"type": "Point", "coordinates": [-122.438174, 37.716327]}, "type": "Feature", "properties": {"city": "San Francisco", "name": "Customer  335", "zip": "94112", "sales": "103.36", "state": "CA", "cust_id": "335", "location": "250 Amazon Ave San Francisco, CA 94112", "address": "250 Amazon Ave", "zip_code": "94112", "store_id": "2"}}, {"geometry": {"type": "Point", "coordinates": [-122.426643, 37.723815]}, "type": "Feature", "properties": {"city": "San Francisco", "name": "Customer  336", "zip": "94112", "sales": "104.54", "state": "CA", "cust_id": "336", "location": "250 Athens St San Francisco, CA 94112", "address": "250 Athens St", "zip_code": "94112", "store_id": "2"}}, {"geometry": {"type": "Point", "coordinates": [-122.40508, 37.727151]}, "type": "Feature", "properties": {"city": "San Francisco", "name": "Customer  337", "zip": "94134", "sales": "6.34", "state": "CA", "cust_id": "337", "location": "250 Bacon St San Francisco, CA 94134", "address": "250 Bacon St", "zip_code": "94134", "store_id": "2"}}, {"geometry": {"type": "Point", "coordinates": [-122.431945, 37.736073]}, "type": "Feature", "properties": {"city": "San Francisco", "name": "Customer  338", "zip": "94131", "sales": "179.09", "state": "CA", "cust_id": "338", "location": "250 Bemis St San Francisco, CA 94131", "address": "250 Bemis St", "zip_code": "94131", "store_id": "2"}}, {"geometry": {"type": "Point", "coordinates": [-122.428941, 37.733331]}, "type": "Feature", "properties": {"city": "San Francisco", "name": "Customer  339", "zip": "94112", "sales": "75.44", "state": "CA", "cust_id": "339", "location": "250 Bosworth St San Francisco, CA 94112", "address": "250 Bosworth St", "zip_code": "94112", "store_id": "2"}}, {"geometry": {"type": "Point", "coordinates": [-122.454632, 37.779429]}, "type": "Feature", "properties": {"city": "San Francisco", "name": "Customer  34", "zip": "94118", "sales": "19.01", "state": "CA", "cust_id": "34", "location": "125 Beaumont Ave San Francisco, CA 94118", "address": "125 Beaumont Ave", "zip_code": "94118", "store_id": "1"}}, {"geometry": {"type": "Point", "coordinates": [-122.453396, 37.765228]}, "type": "Feature", "properties": {"city": "San Francisco", "name": "Customer  340", "zip": "94117", "sales": "23.17", "state": "CA", "cust_id": "340", "location": "250 Carl St San Francisco, CA 94117", "address": "250 Carl St", "zip_code": "94117", "store_id": "1"}}, {"geometry": {"type": "Point", "coordinates": [-122.426125, 37.752494]}, "type": "Feature", "properties": {"city": "San Francisco", "name": "Customer  341", "zip": "94114", "sales": "24.35", "state": "CA", "cust_id": "341", "location": "250 Chattanooga St San Francisco, CA 94114", "address": "250 Chattanooga St", "zip_code": "94114", "store_id": "2"}}, {"geometry": {"type": "Point", "coordinates": [-122.428994, 37.724966]}, "type": "Feature", "properties": {"city": "San Francisco", "name": "Customer  342", "zip": "94112", "sales": "49.3", "state": "CA", "cust_id": "342", "location": "250 Edinburgh St San Francisco, CA 94112", "address": "250 Edinburgh St", "zip_code": "94112", "store_id": "2"}}, {"geometry": {"type": "Point", "coordinates": [-122.446431, 37.728539]}, "type": "Feature", "properties": {"city": "San Francisco", "name": "Customer  343", "zip": "94112", "sales": "181.47", "state": "CA", "cust_id": "343", "location": "250 Edna St San Francisco, CA 94112", "address": "250 Edna St", "zip_code": "94112", "store_id": "2"}}, {"geometry": {"type": "Point", "coordinates": [-122.431574, 37.725127]}, "type": "Feature", "properties": {"city": "San Francisco", "name": "Customer  344", "zip": "94112", "sales": "28.31", "state": "CA", "cust_id": "344", "location": "250 Excelsior Ave San Francisco, CA 94112", "address": "250 Excelsior Ave", "zip_code": "94112", "store_id": "2"}}, {"geometry": {"type": "Point", "coordinates": [-122.423282, 37.787929]}, "type": "Feature", "properties": {"city": "San Francisco", "name": "Customer  345", "zip": "94109", "sales": "10", "state": "CA", "cust_id": "345", "location": "250 Fern St San Francisco, CA 94109", "address": "250 Fern St", "zip_code": "94109", "store_id": "1"}}, {"geometry": {"type": "Point", "coordinates": [-122.445355, 37.729731]}, "type": "Feature", "properties": {"city": "San Francisco", "name": "Customer  346", "zip": "94112", "sales": "24.35", "state": "CA", "cust_id": "346", "location": "250 Flood Ave San Francisco, CA 94112", "address": "250 Flood Ave", "zip_code": "94112", "store_id": "1"}}, {"geometry": {"type": "Point", "coordinates": [-122.420449, 37.777276]}, "type": "Feature", "properties": {"city": "San Francisco", "name": "Customer  347", "zip": "94102", "sales": "20.99", "state": "CA", "cust_id": "347", "location": "250 Hayes St San Francisco, CA 94102", "address": "250 Hayes St", "zip_code": "94102", "store_id": "1"}}, {"geometry": {"type": "Point", "coordinates": [-122.409331, 37.727997]}, "type": "Feature", "properties": {"city": "San Francisco", "name": "Customer  348", "zip": "94134", "sales": "132.96", "state": "CA", "cust_id": "348", "location": "250 Holyoke St San Francisco, CA 94134", "address": "250 Holyoke St", "zip_code": "94134", "store_id": "2"}}, {"geometry": {"type": "Point", "coordinates": [-122.440755, 37.732131]}, "type": "Feature", "properties": {"city": "San Francisco", "name": "Customer  349", "zip": "94131", "sales": "138.01", "state": "CA", "cust_id": "349", "location": "250 Joost Ave San Francisco, CA 94131", "address": "250 Joost Ave", "zip_code": "94131", "store_id": "2"}}, {"geometry": {"type": "Point", "coordinates": [-122.444732, 37.733731]}, "type": "Feature", "properties": {"city": "San Francisco", "name": "Customer  35", "zip": "94127", "sales": "39.01", "state": "CA", "cust_id": "35", "location": "125 Melrose Ave San Francisco, CA 94127", "address": "125 Melrose Ave", "zip_code": "94127", "store_id": "2"}}, {"geometry": {"type": "Point", "coordinates": [-122.447604, 37.728182]}, "type": "Feature", "properties": {"city": "San Francisco", "name": "Customer  350", "zip": "94112", "sales": "132.76", "state": "CA", "cust_id": "350", "location": "250 Judson Ave San Francisco, CA 94112", "address": "250 Judson Ave", "zip_code": "94112", "store_id": "2"}}, {"geometry": {"type": "Point", "coordinates": [-122.420653, 37.759323]}, "type": "Feature", "properties": {"city": "San Francisco", "name": "Customer  351", "zip": "94110", "sales": "9.01", "state": "CA", "cust_id": "351", "location": "250 Lexington St San Francisco, CA 94110", "address": "250 Lexington St", "zip_code": "94110", "store_id": "2"}}, {"geometry": {"type": "Point", "coordinates": [-122.433443, 37.724915]}, "type": "Feature", "properties": {"city": "San Francisco", "name": "Customer  352", "zip": "94112", "sales": "173.65", "state": "CA", "cust_id": "352", "location": "250 London St San Francisco, CA 94112", "address": "250 London St", "zip_code": "94112", "store_id": "2"}}, {"geometry": {"type": "Point", "coordinates": [-122.448992, 37.735931]}, "type": "Feature", "properties": {"city": "San Francisco", "name": "Customer  353", "zip": "94127", "sales": "106.52", "state": "CA", "cust_id": "353", "location": "250 Los Palmos Dr San Francisco, CA 94127", "address": "250 Los Palmos Dr", "zip_code": "94127", "store_id": "2"}}, {"geometry": {"type": "Point", "coordinates": [-122.428627, 37.735975]}, "type": "Feature", "properties": {"city": "San Francisco", "name": "Customer  354", "zip": "94131", "sales": "44.35", "state": "CA", "cust_id": "354", "location": "250 Mateo St San Francisco, CA 94131", "address": "250 Mateo St", "zip_code": "94131", "store_id": "2"}}, {"geometry": {"type": "Point", "coordinates": [-122.455088, 37.72978]}, "type": "Feature", "properties": {"city": "San Francisco", "name": "Customer  355", "zip": "94112", "sales": "28.31", "state": "CA", "cust_id": "355", "location": "250 Montecito Ave San Francisco, CA 94112", "address": "250 Montecito Ave", "zip_code": "94112", "store_id": "2"}}, {"geometry": {"type": "Point", "coordinates": [-122.425894, 37.723415]}, "type": "Feature", "properties": {"city": "San Francisco", "name": "Customer  356", "zip": "94112", "sales": "9.01", "state": "CA", "cust_id": "356", "location": "250 Moscow St San Francisco, CA 94112", "address": "250 Moscow St", "zip_code": "94112", "store_id": "2"}}, {"geometry": {"type": "Point", "coordinates": [-122.415933, 37.741018]}, "type": "Feature", "properties": {"city": "San Francisco", "name": "Customer  357", "zip": "94110", "sales": "22.37", "state": "CA", "cust_id": "357", "location": "250 Moultrie St San Francisco, CA 94110", "address": "250 Moultrie St", "zip_code": "94110", "store_id": "2"}}, {"geometry": {"type": "Point", "coordinates": [-122.428243, 37.724515]}, "type": "Feature", "properties": {"city": "San Francisco", "name": "Customer  358", "zip": "94112", "sales": "164.93", "state": "CA", "cust_id": "358", "location": "250 Naples St San Francisco, CA 94112", "address": "250 Naples St", "zip_code": "94112", "store_id": "2"}}, {"geometry": {"type": "Point", "coordinates": [-122.445194, 37.718239]}, "type": "Feature", "properties": {"city": "San Francisco", "name": "Customer  359", "zip": "94112", "sales": "127.12", "state": "CA", "cust_id": "359", "location": "250 Niagara Ave San Francisco, CA 94112", "address": "250 Niagara Ave", "zip_code": "94112", "store_id": "2"}}, {"geometry": {"type": "Point", "coordinates": [-122.440132, 37.722081]}, "type": "Feature", "properties": {"city": "San Francisco", "name": "Customer  36", "zip": "94112", "sales": "29.01", "state": "CA", "cust_id": "36", "location": "125 Onondaga Ave San Francisco, CA 94112", "address": "125 Onondaga Ave", "zip_code": "94112", "store_id": "2"}}, {"geometry": {"type": "Point", "coordinates": [-122.433584, 37.772188]}, "type": "Feature", "properties": {"city": "San Francisco", "name": "Customer  360", "zip": "94117", "sales": "36.04", "state": "CA", "cust_id": "360", "location": "250 Pierce St San Francisco, CA 94117", "address": "250 Pierce St", "zip_code": "94117", "store_id": "1"}}, {"geometry": {"type": "Point", "coordinates": [-122.421549, 37.735728]}, "type": "Feature", "properties": {"city": "San Francisco", "name": "Customer  361", "zip": "94110", "sales": "50.89", "state": "CA", "cust_id": "361", "location": "250 Richland Ave San Francisco, CA 94110", "address": "250 Richland Ave", "zip_code": "94110", "store_id": "2"}}, {"geometry": {"type": "Point", "coordinates": [-122.429876, 37.735175]}, "type": "Feature", "properties": {"city": "San Francisco", "name": "Customer  362", "zip": "94131", "sales": "111.18", "state": "CA", "cust_id": "362", "location": "250 Roanoke St San Francisco, CA 94131", "address": "250 Roanoke St", "zip_code": "94131", "store_id": "2"}}, {"geometry": {"type": "Point", "coordinates": [-122.427553, 37.744379]}, "type": "Feature", "properties": {"city": "San Francisco", "name": "Customer  363", "zip": "94131", "sales": "5.94", "state": "CA", "cust_id": "363", "location": "250 Valley St San Francisco, CA 94131", "address": "250 Valley St", "zip_code": "94131", "store_id": "2"}}, {"geometry": {"type": "Point", "coordinates": [-122.427494, 37.724215]}, "type": "Feature", "properties": {"city": "San Francisco", "name": "Customer  364", "zip": "94112", "sales": "94.45", "state": "CA", "cust_id": "364", "location": "250 Vienna St San Francisco, CA 94112", "address": "250 Vienna St", "zip_code": "94112", "store_id": "2"}}, {"geometry": {"type": "Point", "coordinates": [-122.436771, 37.736409]}, "type": "Feature", "properties": {"city": "San Francisco", "name": "Customer  365", "zip": "94131", "sales": "15.74", "state": "CA", "cust_id": "365", "location": "253 Sussex St San Francisco, CA 94131", "address": "253 Sussex St", "zip_code": "94131", "store_id": "2"}}, {"geometry": {"type": "Point", "coordinates": [-122.431248, 37.793156]}, "type": "Feature", "properties": {"city": "San Francisco", "name": "Customer  366", "zip": "94115", "sales": "21.68", "state": "CA", "cust_id": "366", "location": "2532 Buchanan St San Francisco, CA 94115", "address": "2532 Buchanan St", "zip_code": "94115", "store_id": "1"}}, {"geometry": {"type": "Point", "coordinates": [-122.43879, 37.766382]}, "type": "Feature", "properties": {"city": "San Francisco", "name": "Customer  367", "zip": "94114", "sales": "32.17", "state": "CA", "cust_id": "367", "location": "2550 15th St San Francisco, CA 94114", "address": "2550 15th St", "zip_code": "94114", "store_id": "1"}}]}
