{"dataID": "1376673065", "URL_xls": "./geocoded_files/2012-crime-pacific-beach-three-month-7-9.xls", "type": "FeatureCollection", "features": [{"geometry": {"type": "Point", "coordinates": [-117.254577468, 32.7967605349]}, "geomasked_geometry": {"type": "Point", "coordinates": [-117.25461, 32.79673]}, "type": "Feature", "properties": {"week": "26", "gctype": "cns/segment", "address": "800 Block Garnet Avenue", "gcquality": "65", "community": "SanPCF", "month": "7", "lat": "32.7967605349", "is_night": "1", "council": "San002", "year": "2012", "date": "41091", "id": "", "desc": "BATTERY WITH SERIOUS BODILY INJURY (F)", "city": "SndSAN", "council_pop": "142456", "asr_zone": "6", "hour": "0", "segment_id": "30948", "lon": "-117.254577468", "longitude": -117.254577468, "day": "4565", "comm_pop": "39849", "time": "0.00347222222222", "latitude": 32.7967605349, "lampdist": "2236", "nbrhood": "SanPCF", "type": "ASSAULT", "dow": "0"}}, {"geometry": {"type": "Point", "coordinates": [-117.255841395, 32.7977273476]}, "geomasked_geometry": {"type": "Point", "coordinates": [-117.25576, 32.79773]}, "type": "Feature", "properties": {"week": "26", "gctype": "cns/segment", "address": "4600 Block Mission Boulevard", "gcquality": "65", "community": "SanPCF", "month": "7", "lat": "32.7977273476", "is_night": "1", "council": "San002", "year": "2012", "date": "41091", "id": "", "desc": "ASSAULT W/DEADLY WEAPON OTHER THAN FIREARM OR GBI FORCE", "city": "SndSAN", "council_pop": "142456", "asr_zone": "6", "hour": "0", "segment_id": "46524", "lon": "-117.255841395", "longitude": -117.255841395, "day": "4565", "comm_pop": "39849", "time": "0.0104166666667", "latitude": 32.7977273476, "lampdist": "2236", "nbrhood": "SanPCF", "type": "ASSAULT", "dow": "0"}}, {"geometry": {"type": "Point", "coordinates": [-117.252469332, 32.7962430802]}, "geomasked_geometry": {"type": "Point", "coordinates": [-117.25252, 32.79622]}, "type": "Feature", "properties": {"week": "26", "gctype": "cns/segment", "address": "900 Block Hornblend Street", "gcquality": "65", "community": "SanPCF", "month": "7", "lat": "32.7962430802", "is_night": "1", "council": "San002", "year": "2012", "date": "41091", "id": "", "desc": "VEHICLE BREAK-IN/THEFT", "city": "SndSAN", "council_pop": "142456", "asr_zone": "1", "hour": "0", "segment_id": "35996", "lon": "-117.252469332", "longitude": -117.252469332, "day": "4565", "comm_pop": "39849", "time": "0.03125", "latitude": 32.7962430802, "lampdist": "9219", "nbrhood": "SanPCF", "type": "VEHICLE BREAK-IN/THEFT", "dow": "0"}}, {"geometry": {"type": "Point", "coordinates": [-117.250922423, 32.7975735571]}, "geomasked_geometry": {"type": "Point", "coordinates": [-117.25087, 32.797540000000005]}, "type": "Feature", "properties": {"week": "26", "gctype": "cns/segment", "address": "1000 Block Garnet Avenue", "gcquality": "65", "community": "SanPCF", "month": "7", "lat": "32.7975735571", "is_night": "1", "council": "San002", "year": "2012", "date": "41091", "id": "", "desc": "DISORDERLY CONDUCT: ALCOHOL", "city": "SndSAN", "council_pop": "142456", "asr_zone": "6", "hour": "4", "segment_id": "30949", "lon": "-117.250922423", "longitude": -117.250922423, "day": "4565", "comm_pop": "39849", "time": "0.166666666667", "latitude": 32.7975735571, "lampdist": "1000", "nbrhood": "SanPCF", "type": "DRUGS/ALCOHOL VIOLATIONS", "dow": "0"}}, {"geometry": {"type": "Point", "coordinates": [-117.252751595, 32.7971684212]}, "geomasked_geometry": {"type": "Point", "coordinates": [-117.25281, 32.797129999999996]}, "type": "Feature", "properties": {"week": "26", "gctype": "cns/segment", "address": "900 Block Garnet Avenue", "gcquality": "65", "community": "SanPCF", "month": "7", "lat": "32.7971684212", "is_night": "0", "council": "San002", "year": "2012", "date": "41091", "id": "", "desc": "OPEN CONTAINER IN PUBLIC PARK", "city": "SndSAN", "council_pop": "142456", "asr_zone": "6", "hour": "7", "segment_id": "30947", "lon": "-117.252751595", "longitude": -117.252751595, "day": "4565", "comm_pop": "39849", "time": "0.302083333333", "latitude": 32.7971684212, "lampdist": "1414", "nbrhood": "SanPCF", "type": "DRUGS/ALCOHOL VIOLATIONS", "dow": "0"}}, {"geometry": {"type": "Point", "coordinates": [-117.252751595, 32.7971684212]}, "geomasked_geometry": {"type": "Point", "coordinates": [-117.25283999999999, 32.79714]}, "type": "Feature", "properties": {"week": "26", "gctype": "cns/segment", "address": "900 Block Garnet Avenue", "gcquality": "65", "community": "SanPCF", "month": "7", "lat": "32.7971684212", "is_night": "0", "council": "San002", "year": "2012", "date": "41091", "id": "", "desc": "DISORDERLY CONDUCT: ALCOHOL", "city": "SndSAN", "council_pop": "142456", "asr_zone": "6", "hour": "7", "segment_id": "30947", "lon": "-117.252751595", "longitude": -117.252751595, "day": "4565", "comm_pop": "39849", "time": "0.305555555556", "latitude": 32.7971684212, "lampdist": "1414", "nbrhood": "SanPCF", "type": "DRUGS/ALCOHOL VIOLATIONS", "dow": "0"}}, {"geometry": {"type": "Point", "coordinates": [-117.252751595, 32.7971684212]}, "geomasked_geometry": {"type": "Point", "coordinates": [-117.25273, 32.797109999999996]}, "type": "Feature", "properties": {"week": "26", "gctype": "cns/segment", "address": "900 Block Garnet Avenue", "gcquality": "65", "community": "SanPCF", "month": "7", "lat": "32.7971684212", "is_night": "0", "council": "San002", "year": "2012", "date": "41091", "id": "", "desc": "PETTY THEFT / THEFT OF PERSONAL PROPERTY / SHOPLIFT", "city": "SndSAN", "council_pop": "142456", "asr_zone": "6", "hour": "9", "segment_id": "30947", "lon": "-117.252751595", "longitude": -117.252751595, "day": "4565", "comm_pop": "39849", "time": "0.402777777778", "latitude": 32.7971684212, "lampdist": "1414", "nbrhood": "SanPCF", "type": "THEFT/LARCENY", "dow": "0"}}, {"geometry": {"type": "Point", "coordinates": [-117.233943822, 32.7964608447]}, "geomasked_geometry": {"type": "Point", "coordinates": [-117.23388, 32.79647]}, "type": "Feature", "properties": {"week": "26", "gctype": "cns/segment", "address": "4200 Block Lamont Street", "gcquality": "65", "community": "SanPCF", "month": "7", "lat": "32.7964608447", "is_night": "0", "council": "San002", "year": "2012", "date": "41091", "id": "", "desc": "DISORDERLY CONDUCT: ALCOHOL", "city": "SndSAN", "council_pop": "142456", "asr_zone": "3", "hour": "9", "segment_id": "41550", "lon": "-117.233943822", "longitude": -117.233943822, "day": "4565", "comm_pop": "39849", "time": "0.414583333333", "latitude": 32.7964608447, "lampdist": "5000", "nbrhood": "SanPCF", "type": "DRUGS/ALCOHOL VIOLATIONS", "dow": "0"}}, {"geometry": {"type": "Point", "coordinates": [-117.216742284, 32.8031533139]}, "geomasked_geometry": {"type": "Point", "coordinates": [-117.21673, 32.80316]}, "type": "Feature", "properties": {"week": "26", "gctype": "cns/segment", "address": "4500 Block Mission Bay Drive", "gcquality": "65", "community": "SanPCF", "month": "7", "lat": "32.8031533139", "is_night": "0", "council": "San002", "year": "2012", "date": "41091", "id": "", "desc": "COMMERCIAL BURGLARY", "city": "SndSAN", "council_pop": "142456", "asr_zone": "6", "hour": "12", "segment_id": "46654", "lon": "-117.216742284", "longitude": -117.216742284, "day": "4565", "comm_pop": "39849", "time": "0.5", "latitude": 32.8031533139, "lampdist": "3605", "nbrhood": "SanPCF", "type": "BURGLARY", "dow": "0"}}, {"geometry": {"type": "Point", "coordinates": [-117.23237827, 32.7946867658]}, "geomasked_geometry": {"type": "Point", "coordinates": [-117.23242, 32.794779999999996]}, "type": "Feature", "properties": {"week": "26", "gctype": "cns/segment", "address": "4000 Block Honeycutt Street", "gcquality": "65", "community": "SanPCF", "month": "7", "lat": "32.7946867658", "is_night": "0", "council": "San002", "year": "2012", "date": "41091", "id": "", "desc": "FRAUD", "city": "SndSAN", "council_pop": "142456", "asr_zone": "3", "hour": "12", "segment_id": "35896", "lon": "-117.23237827", "longitude": -117.23237827, "day": "4565", "comm_pop": "39849", "time": "0.5", "latitude": 32.7946867658, "lampdist": "9055", "nbrhood": "SanPCF", "type": "FRAUD", "dow": "0"}}, {"geometry": {"type": "Point", "coordinates": [-117.254178425, 32.812849611]}, "geomasked_geometry": {"type": "Point", "coordinates": [-117.25422999999999, 32.812760000000004]}, "type": "Feature", "properties": {"week": "26", "gctype": "cns/segment", "address": "5300 Block Van Nuys Court", "gcquality": "65", "community": "SanPCF", "month": "7", "lat": "32.812849611", "is_night": "0", "council": "San002", "year": "2012", "date": "41091", "id": "", "desc": "GRAND THEFT/UNSPECIFIED", "city": "SndSAN", "council_pop": "142456", "asr_zone": "1", "hour": "12", "segment_id": "62560", "lon": "-117.254178425", "longitude": -117.254178425, "day": "4565", "comm_pop": "39849", "time": "0.5", "latitude": 32.812849611, "lampdist": "3000", "nbrhood": "SanPCF", "type": "THEFT/LARCENY", "dow": "0"}}, {"geometry": {"type": "Point", "coordinates": [-117.257841438, 32.7990317091]}, "geomasked_geometry": {"type": "Point", "coordinates": [-117.25784, 32.79895]}, "type": "Feature", "properties": {"week": "26", "gctype": "cns/segment", "address": "4700 Block Ocean Boulevard", "gcquality": "65", "community": "SanPCF", "month": "7", "lat": "32.7990317091", "is_night": "0", "council": "San002", "year": "2012", "date": "41091", "id": "", "desc": "OPEN CONTAINER IN PUBLIC PARK", "city": "SndSAN", "council_pop": "142456", "asr_zone": "6", "hour": "15", "segment_id": "49761", "lon": "-117.257841438", "longitude": -117.257841438, "day": "4565", "comm_pop": "39849", "time": "0.635416666667", "latitude": 32.7990317091, "lampdist": "1000", "nbrhood": "SanPCF", "type": "DRUGS/ALCOHOL VIOLATIONS", "dow": "0"}}, {"geometry": {"type": "Point", "coordinates": [-117.239509131, 32.8050550098]}, "geomasked_geometry": {"type": "Point", "coordinates": [-117.23946000000001, 32.80516]}, "type": "Feature", "properties": {"week": "26", "gctype": "cns/segment", "address": "1700 Block Chalcedony Street", "gcquality": "65", "community": "SanPCF", "month": "7", "lat": "32.8050550098", "is_night": "1", "council": "San002", "year": "2012", "date": "41091", "id": "", "desc": "PETTY THEFT / THEFT OF PERSONAL PROPERTY / SHOPLIFT", "city": "SndSAN", "council_pop": "142456", "asr_zone": "4", "hour": "21", "segment_id": "17709", "lon": "-117.239509131", "longitude": -117.239509131, "day": "4565", "comm_pop": "39849", "time": "0.895833333333", "latitude": 32.8050550098, "lampdist": "9055", "nbrhood": "SanPCF", "type": "THEFT/LARCENY", "dow": "0"}}, {"geometry": {"type": "Point", "coordinates": [-117.241302114, 32.7948492226]}, "geomasked_geometry": {"type": "Point", "coordinates": [-117.24136, 32.794810000000005]}, "type": "Feature", "properties": {"week": "26", "gctype": "cns/segment", "address": "4200 Block Haines Street", "gcquality": "65", "community": "SanPCF", "month": "7", "lat": "32.7948492226", "is_night": "1", "council": "San002", "year": "2012", "date": "41091", "id": "", "desc": "PETTY THEFT / THEFT OF PERSONAL PROPERTY / SHOPLIFT", "city": "SndSAN", "council_pop": "142456", "asr_zone": "3", "hour": "22", "segment_id": "33453", "lon": "-117.241302114", "longitude": -117.241302114, "day": "4565", "comm_pop": "39849", "time": "0.923611111111", "latitude": 32.7948492226, "lampdist": "4000", "nbrhood": "SanPCF", "type": "THEFT/LARCENY", "dow": "0"}}, {"geometry": {"type": "Point", "coordinates": [-117.245733147, 32.7997030379]}, "geomasked_geometry": {"type": "Point", "coordinates": [-117.24568, 32.799620000000004]}, "type": "Feature", "properties": {"week": "26", "gctype": "cns/segment", "address": "1300 Block Felspar Street", "gcquality": "65", "community": "SanPCF", "month": "7", "lat": "32.7997030379", "is_night": "1", "council": "San002", "year": "2012", "date": "41091", "id": "", "desc": "GRAND THEFT:MONEY/LABOR/PROPERTY OVER $950", "city": "SndSAN", "council_pop": "142456", "asr_zone": "3", "hour": "23", "segment_id": "29054", "lon": "-117.245733147", "longitude": -117.245733147, "day": "4565", "comm_pop": "39849", "time": "0.996527777778", "latitude": 32.7997030379, "lampdist": "7071", "nbrhood": "SanPCF", "type": "THEFT/LARCENY", "dow": "0"}}, {"geometry": {"type": "Point", "coordinates": [-117.256214163, 32.8092750516]}, "geomasked_geometry": {"type": "Point", "coordinates": [-117.25611, 32.80932]}, "type": "Feature", "properties": {"week": "27", "gctype": "cns/segment", "address": "900 Block Turquoise Street", "gcquality": "65", "community": "SanPCF", "month": "7", "lat": "32.8092750516", "is_night": "0", "council": "San002", "year": "2012", "date": "41092", "id": "", "desc": "COMMERCIAL BURGLARY", "city": "SndSAN", "council_pop": "142456", "asr_zone": "6", "hour": "8", "segment_id": "61580", "lon": "-117.256214163", "longitude": -117.256214163, "day": "4566", "comm_pop": "39849", "time": "0.354166666667", "latitude": 32.8092750516, "lampdist": "1414", "nbrhood": "SanPCF", "type": "BURGLARY", "dow": "1"}}, {"geometry": {"type": "Point", "coordinates": [-117.25577507, 32.7944846103]}, "geomasked_geometry": {"type": "Point", "coordinates": [-117.25577, 32.794489999999996]}, "type": "Feature", "properties": {"week": "27", "gctype": "cns/segment", "address": "700 Block Grand Avenue", "gcquality": "65", "community": "SanPCF", "month": "7", "lat": "32.7944846103", "is_night": "0", "council": "San002", "year": "2012", "date": "41092", "id": "", "desc": "OPEN CONTAINER IN PUBLIC PARK", "city": "SndSAN", "council_pop": "142456", "asr_zone": "6", "hour": "10", "segment_id": "32136", "lon": "-117.25577507", "longitude": -117.25577507, "day": "4566", "comm_pop": "39849", "time": "0.423611111111", "latitude": 32.7944846103, "lampdist": "3162", "nbrhood": "SanPCF", "type": "DRUGS/ALCOHOL VIOLATIONS", "dow": "1"}}, {"geometry": {"type": "Point", "coordinates": [-117.248213421, 32.8108798169]}, "geomasked_geometry": {"type": "Point", "coordinates": [-117.24829, 32.81084]}, "type": "Feature", "properties": {"week": "27", "gctype": "cns/segment", "address": "5200 Block Castle Hills Drive", "gcquality": "65", "community": "SanPCF", "month": "7", "lat": "32.8108798169", "is_night": "0", "council": "San002", "year": "2012", "date": "41092", "id": "", "desc": "FRAUD", "city": "SndSAN", "council_pop": "142456", "asr_zone": "1", "hour": "12", "segment_id": "16558", "lon": "-117.248213421", "longitude": -117.248213421, "day": "4566", "comm_pop": "39849", "time": "0.5", "latitude": 32.8108798169, "lampdist": "3605", "nbrhood": "SanPCF", "type": "FRAUD", "dow": "1"}}, {"geometry": {"type": "Point", "coordinates": [-117.25710236, 32.7981999141]}, "geomasked_geometry": {"type": "Point", "coordinates": [-117.25703, 32.79817]}, "type": "Feature", "properties": {"week": "27", "gctype": "cns/segment", "address": "600 Block Emerald Street", "gcquality": "65", "community": "SanPCF", "month": "7", "lat": "32.7981999141", "is_night": "0", "council": "San002", "year": "2012", "date": "41092", "id": "", "desc": "PETTY THEFT / THEFT OF PERSONAL PROPERTY / SHOPLIFT", "city": "SndSAN", "council_pop": "142456", "asr_zone": "1", "hour": "15", "segment_id": "27220", "lon": "-117.25710236", "longitude": -117.25710236, "day": "4566", "comm_pop": "39849", "time": "0.625", "latitude": 32.7981999141, "lampdist": "4123", "nbrhood": "SanPCF", "type": "THEFT/LARCENY", "dow": "1"}}, {"geometry": {"type": "Point", "coordinates": [-117.252941162, 32.8020977615]}, "geomasked_geometry": {"type": "Point", "coordinates": [-117.25298, 32.80214]}, "type": "Feature", "properties": {"week": "27", "gctype": "cns/segment", "address": "1000 Block Chalcedony Street", "gcquality": "65", "community": "SanPCF", "month": "7", "lat": "32.8020977615", "is_night": "0", "council": "San002", "year": "2012", "date": "41092", "id": "", "desc": "OPEN CONTAINER IN PUBLIC PARK", "city": "SndSAN", "council_pop": "142456", "asr_zone": "6", "hour": "16", "segment_id": "17701", "lon": "-117.252941162", "longitude": -117.252941162, "day": "4566", "comm_pop": "39849", "time": "0.677083333333", "latitude": 32.8020977615, "lampdist": "2236", "nbrhood": "SanPCF", "type": "DRUGS/ALCOHOL VIOLATIONS", "dow": "1"}}, {"geometry": {"type": "Point", "coordinates": [-117.234682661, 32.7922524432]}, "geomasked_geometry": {"type": "Point", "coordinates": [-117.23471, 32.792249999999996]}, "type": "Feature", "properties": {"week": "27", "gctype": "cns/segment", "address": "3900 Block Kendall Street", "gcquality": "65", "community": "SanPCF", "month": "7", "lat": "32.7922524432", "is_night": "0", "council": "San002", "year": "2012", "date": "41092", "id": "", "desc": "TAKE VEHICLE W/O OWNER'S CONSENT/VEHICLE THEFT", "city": "SndSAN", "council_pop": "142456", "asr_zone": "3", "hour": "18", "segment_id": "39957", "lon": "-117.234682661", "longitude": -117.234682661, "day": "4566", "comm_pop": "39849", "time": "0.770833333333", "latitude": 32.7922524432, "lampdist": "8544", "nbrhood": "SanPCF", "type": "MOTOR VEHICLE THEFT", "dow": "1"}}, {"geometry": {"type": "Point", "coordinates": [-117.238119184, 32.8003922568]}, "geomasked_geometry": {"type": "Point", "coordinates": [-117.23803000000001, 32.80039]}, "type": "Feature", "properties": {"week": "27", "gctype": "cns/segment", "address": "1700 Block Garnet Avenue", "gcquality": "65", "community": "SanPCF", "month": "7", "lat": "32.8003922568", "is_night": "1", "council": "San002", "year": "2012", "date": "41092", "id": "", "desc": "MALICIOUS MISCHIEF/VANDALISM(MISDEMEANOR)", "city": "SndSAN", "council_pop": "142456", "asr_zone": "6", "hour": "21", "segment_id": "30954", "lon": "-117.238119184", "longitude": -117.238119184, "day": "4566", "comm_pop": "39849", "time": "0.875", "latitude": 32.8003922568, "lampdist": "7071", "nbrhood": "SanPCF", "type": "VANDALISM", "dow": "1"}}, {"geometry": {"type": "Point", "coordinates": [-117.241493886, 32.7986501121]}, "geomasked_geometry": {"type": "Point", "coordinates": [-117.24146, 32.79871]}, "type": "Feature", "properties": {"week": "27", "gctype": "cns/segment", "address": "1500 Block Hornblend Street", "gcquality": "65", "community": "SanPCF", "month": "7", "lat": "32.7986501121", "is_night": "1", "council": "San002", "year": "2012", "date": "41092", "id": "", "desc": "VANDALISM ($400 OR MORE)", "city": "SndSAN", "council_pop": "142456", "asr_zone": "3", "hour": "23", "segment_id": "35992", "lon": "-117.241493886", "longitude": -117.241493886, "day": "4566", "comm_pop": "39849", "time": "0.982638888889", "latitude": 32.7986501121, "lampdist": "7000", "nbrhood": "SanPCF", "type": "VANDALISM", "dow": "1"}}, {"geometry": {"type": "Point", "coordinates": [-117.230872216, 32.7991252563]}, "geomasked_geometry": {"type": "Point", "coordinates": [-117.23099, 32.79905]}, "type": "Feature", "properties": {"week": "27", "gctype": "cns/segment", "address": "4300 Block Noyes Street", "gcquality": "65", "community": "SanPCF", "month": "7", "lat": "32.7991252563", "is_night": "1", "council": "San002", "year": "2012", "date": "41093", "id": "", "desc": "VEHICLE BREAK-IN/THEFT", "city": "SndSAN", "council_pop": "142456", "asr_zone": "3", "hour": "3", "segment_id": "17510", "lon": "-117.230872216", "longitude": -117.230872216, "day": "4567", "comm_pop": "39849", "time": "0.125", "latitude": 32.7991252563, "lampdist": "5000", "nbrhood": "SanPCF", "type": "VEHICLE BREAK-IN/THEFT", "dow": "2"}}, {"geometry": {"type": "Point", "coordinates": [-117.238119184, 32.8003922568]}, "geomasked_geometry": {"type": "Point", "coordinates": [-117.2381, 32.800320000000006]}, "type": "Feature", "properties": {"week": "27", "gctype": "cns/segment", "address": "1700 Block Garnet Avenue", "gcquality": "65", "community": "SanPCF", "month": "7", "lat": "32.8003922568", "is_night": "1", "council": "San002", "year": "2012", "date": "41093", "id": "", "desc": "DUI ALCOHOL AND/OR DRUGS", "city": "SndSAN", "council_pop": "142456", "asr_zone": "6", "hour": "3", "segment_id": "30954", "lon": "-117.238119184", "longitude": -117.238119184, "day": "4567", "comm_pop": "39849", "time": "0.148611111111", "latitude": 32.8003922568, "lampdist": "7071", "nbrhood": "SanPCF", "type": "DUI", "dow": "2"}}, {"geometry": {"type": "Point", "coordinates": [-117.232452923, 32.791315094]}, "geomasked_geometry": {"type": "Point", "coordinates": [-117.23256, 32.79122]}, "type": "Feature", "properties": {"week": "27", "gctype": "cns/segment", "address": "3800 Block Lamont Street", "gcquality": "65", "community": "SanPCF", "month": "7", "lat": "32.791315094", "is_night": "0", "council": "San002", "year": "2012", "date": "41093", "id": "", "desc": "OPEN CONTAINER IN PUBLIC PARK", "city": "SndSAN", "council_pop": "142456", "asr_zone": "1", "hour": "9", "segment_id": "41540", "lon": "-117.232452923", "longitude": -117.232452923, "day": "4567", "comm_pop": "39849", "time": "0.375", "latitude": 32.791315094, "lampdist": "4242", "nbrhood": "SanPCF", "type": "DRUGS/ALCOHOL VIOLATIONS", "dow": "2"}}, {"geometry": {"type": "Point", "coordinates": [-117.257193032, 32.7976819704]}, "geomasked_geometry": {"type": "Point", "coordinates": [-117.25726, 32.79767]}, "type": "Feature", "properties": {"week": "27", "gctype": "cns/segment", "address": "4600 Block Ocean Boulevard", "gcquality": "65", "community": "SanPCF", "month": "7", "lat": "32.7976819704", "is_night": "0", "council": "San002", "year": "2012", "date": "41093", "id": "", "desc": "BATTERY ON PEACE OFFICER/EMERGENCY PERSONNEL", "city": "SndSAN", "council_pop": "142456", "asr_zone": "1", "hour": "14", "segment_id": "49753", "lon": "-117.257193032", "longitude": -117.257193032, "day": "4567", "comm_pop": "39849", "time": "0.583333333333", "latitude": 32.7976819704, "lampdist": "1000", "nbrhood": "SanPCF", "type": "ASSAULT", "dow": "2"}}, {"geometry": {"type": "Point", "coordinates": [-117.256176971, 32.7949128558]}, "geomasked_geometry": {"type": "Point", "coordinates": [-117.25614, 32.79492]}, "type": "Feature", "properties": {"week": "27", "gctype": "cns/segment", "address": "4400 Block Ocean Boulevard", "gcquality": "65", "community": "SanPCF", "month": "7", "lat": "32.7949128558", "is_night": "0", "council": "San002", "year": "2012", "date": "41093", "id": "", "desc": "OPEN CONTAINER IN PUBLIC PARK", "city": "SndSAN", "council_pop": "142456", "asr_zone": "6", "hour": "15", "segment_id": "49748", "lon": "-117.256176971", "longitude": -117.256176971, "day": "4567", "comm_pop": "39849", "time": "0.659722222222", "latitude": 32.7949128558, "lampdist": "2000", "nbrhood": "SanPCF", "type": "DRUGS/ALCOHOL VIOLATIONS", "dow": "2"}}, {"geometry": {"type": "Point", "coordinates": [-117.243619991, 32.7991744796]}, "geomasked_geometry": {"type": "Point", "coordinates": [-117.24358, 32.79917]}, "type": "Feature", "properties": {"week": "27", "gctype": "cns/segment", "address": "1400 Block Garnet Avenue", "gcquality": "65", "community": "SanPCF", "month": "7", "lat": "32.7991744796", "is_night": "0", "council": "San002", "year": "2012", "date": "41093", "id": "", "desc": "PETTY THEFT / THEFT OF PERSONAL PROPERTY / SHOPLIFT", "city": "SndSAN", "council_pop": "142456", "asr_zone": "6", "hour": "17", "segment_id": "30951", "lon": "-117.243619991", "longitude": -117.243619991, "day": "4567", "comm_pop": "39849", "time": "0.708333333333", "latitude": 32.7991744796, "lampdist": "1414", "nbrhood": "SanPCF", "type": "THEFT/LARCENY", "dow": "2"}}, {"geometry": {"type": "Point", "coordinates": [-117.216742284, 32.8031533139]}, "geomasked_geometry": {"type": "Point", "coordinates": [-117.21666, 32.803189999999994]}, "type": "Feature", "properties": {"week": "27", "gctype": "cns/segment", "address": "4500 Block Mission Bay Drive", "gcquality": "65", "community": "SanPCF", "month": "7", "lat": "32.8031533139", "is_night": "0", "council": "San002", "year": "2012", "date": "41093", "id": "", "desc": "PETTY THEFT / THEFT OF PERSONAL PROPERTY / SHOPLIFT", "city": "SndSAN", "council_pop": "142456", "asr_zone": "6", "hour": "20", "segment_id": "46654", "lon": "-117.216742284", "longitude": -117.216742284, "day": "4567", "comm_pop": "39849", "time": "0.833333333333", "latitude": 32.8031533139, "lampdist": "3605", "nbrhood": "SanPCF", "type": "THEFT/LARCENY", "dow": "2"}}, {"geometry": {"type": "Point", "coordinates": [-117.252469332, 32.7962430802]}, "geomasked_geometry": {"type": "Point", "coordinates": [-117.25243, 32.79615]}, "type": "Feature", "properties": {"week": "27", "gctype": "cns/segment", "address": "900 Block Hornblend Street", "gcquality": "65", "community": "SanPCF", "month": "7", "lat": "32.7962430802", "is_night": "1", "council": "San002", "year": "2012", "date": "41093", "id": "", "desc": "TAKE VEHICLE W/O OWNER'S CONSENT/VEHICLE THEFT", "city": "SndSAN", "council_pop": "142456", "asr_zone": "1", "hour": "23", "segment_id": "35996", "lon": "-117.252469332", "longitude": -117.252469332, "day": "4567", "comm_pop": "39849", "time": "0.958333333333", "latitude": 32.7962430802, "lampdist": "9219", "nbrhood": "SanPCF", "type": "MOTOR VEHICLE THEFT", "dow": "2"}}, {"geometry": {"type": "Point", "coordinates": [-117.250922423, 32.7975735571]}, "geomasked_geometry": {"type": "Point", "coordinates": [-117.25083000000001, 32.797630000000005]}, "type": "Feature", "properties": {"week": "27", "gctype": "cns/segment", "address": "1000 Block Garnet Avenue", "gcquality": "65", "community": "SanPCF", "month": "7", "lat": "32.7975735571", "is_night": "1", "council": "San002", "year": "2012", "date": "41093", "id": "", "desc": "OPEN CONTAINER IN PUBLIC PARK", "city": "SndSAN", "council_pop": "142456", "asr_zone": "6", "hour": "23", "segment_id": "30949", "lon": "-117.250922423", "longitude": -117.250922423, "day": "4567", "comm_pop": "39849", "time": "0.961111111111", "latitude": 32.7975735571, "lampdist": "1000", "nbrhood": "SanPCF", "type": "DRUGS/ALCOHOL VIOLATIONS", "dow": "2"}}, {"geometry": {"type": "Point", "coordinates": [-117.249098036, 32.7979717579]}, "geomasked_geometry": {"type": "Point", "coordinates": [-117.2491, 32.798]}, "type": "Feature", "properties": {"week": "27", "gctype": "cns/segment", "address": "1100 Block Garnet Avenue", "gcquality": "65", "community": "SanPCF", "month": "7", "lat": "32.7979717579", "is_night": "1", "council": "San002", "year": "2012", "date": "41093", "id": "", "desc": "DISORDERLY CONDUCT: ALCOHOL", "city": "SndSAN", "council_pop": "142456", "asr_zone": "6", "hour": "23", "segment_id": "30942", "lon": "-117.249098036", "longitude": -117.249098036, "day": "4567", "comm_pop": "39849", "time": "0.972222222222", "latitude": 32.7979717579, "lampdist": "2828", "nbrhood": "SanPCF", "type": "DRUGS/ALCOHOL VIOLATIONS", "dow": "2"}}, {"geometry": {"type": "Point", "coordinates": [-117.252469332, 32.7962430802]}, "geomasked_geometry": {"type": "Point", "coordinates": [-117.2525, 32.79624]}, "type": "Feature", "properties": {"week": "27", "gctype": "cns/segment", "address": "900 Block Hornblend Street", "gcquality": "65", "community": "SanPCF", "month": "7", "lat": "32.7962430802", "is_night": "1", "council": "San002", "year": "2012", "date": "41094", "id": "", "desc": "ASSAULT W/DEADLY WEAPON OTHER THAN FIREARM OR GBI FORCE", "city": "SndSAN", "council_pop": "142456", "asr_zone": "1", "hour": "0", "segment_id": "35996", "lon": "-117.252469332", "longitude": -117.252469332, "day": "4568", "comm_pop": "39849", "time": "0.0208333333333", "latitude": 32.7962430802, "lampdist": "9219", "nbrhood": "SanPCF", "type": "ASSAULT", "dow": "3"}}, {"geometry": {"type": "Point", "coordinates": [-117.247340585, 32.7923569618]}, "geomasked_geometry": {"type": "Point", "coordinates": [-117.24721, 32.79247]}, "type": "Feature", "properties": {"week": "27", "gctype": "cns/segment", "address": "1100 Block Pacific Beach Drive", "gcquality": "65", "community": "SanPCF", "month": "7", "lat": "32.7923569618", "is_night": "1", "council": "San002", "year": "2012", "date": "41094", "id": "", "desc": "DUI ALCOHOL AND/OR DRUGS", "city": "SndSAN", "council_pop": "142456", "asr_zone": "1", "hour": "0", "segment_id": "308", "lon": "-117.247340585", "longitude": -117.247340585, "day": "4568", "comm_pop": "39849", "time": "0.0263888888889", "latitude": 32.7923569618, "lampdist": "8544", "nbrhood": "SanPCF", "type": "DUI", "dow": "3"}}, {"geometry": {"type": "Point", "coordinates": [-117.225804994, 32.8045024996]}, "geomasked_geometry": {"type": "Point", "coordinates": [-117.22584, 32.80453]}, "type": "Feature", "properties": {"week": "27", "gctype": "cns/segment", "address": "2400 Block Felspar Street", "gcquality": "65", "community": "SanPCF", "month": "7", "lat": "32.8045024996", "is_night": "1", "council": "San002", "year": "2012", "date": "41094", "id": "", "desc": "DUI ALCOHOL AND/OR DRUGS", "city": "SndSAN", "council_pop": "142456", "asr_zone": "0", "hour": "2", "segment_id": "29059", "lon": "-117.225804994", "longitude": -117.225804994, "day": "4568", "comm_pop": "39849", "time": "0.113194444444", "latitude": 32.8045024996, "lampdist": "8944", "nbrhood": "SanPCF", "type": "DUI", "dow": "3"}}, {"geometry": {"type": "Point", "coordinates": [-117.254859896, 32.797698237]}, "geomasked_geometry": {"type": "Point", "coordinates": [-117.25495000000001, 32.797689999999996]}, "type": "Feature", "properties": {"week": "27", "gctype": "cns/segment", "address": "800 Block Felspar Street", "gcquality": "65", "community": "SanPCF", "month": "7", "lat": "32.797698237", "is_night": "0", "council": "San002", "year": "2012", "date": "41094", "id": "", "desc": "GRAND THEFT:MONEY/LABOR/PROPERTY OVER $950", "city": "SndSAN", "council_pop": "142456", "asr_zone": "4", "hour": "11", "segment_id": "29052", "lon": "-117.254859896", "longitude": -117.254859896, "day": "4568", "comm_pop": "39849", "time": "0.458333333333", "latitude": 32.797698237, "lampdist": "7000", "nbrhood": "SanPCF", "type": "THEFT/LARCENY", "dow": "3"}}, {"geometry": {"type": "Point", "coordinates": [-117.238310687, 32.804325886]}, "geomasked_geometry": {"type": "Point", "coordinates": [-117.23836999999999, 32.80437]}, "type": "Feature", "properties": {"week": "27", "gctype": "cns/segment", "address": "1700 Block Missouri Street", "gcquality": "65", "community": "SanPCF", "month": "7", "lat": "32.804325886", "is_night": "0", "council": "San002", "year": "2012", "date": "41094", "id": "", "desc": "VEHICLE BREAK-IN/THEFT", "city": "SndSAN", "council_pop": "142456", "asr_zone": "1", "hour": "12", "segment_id": "46931", "lon": "-117.238310687", "longitude": -117.238310687, "day": "4568", "comm_pop": "39849", "time": "0.5", "latitude": 32.804325886, "lampdist": "2236", "nbrhood": "SanPCF", "type": "VEHICLE BREAK-IN/THEFT", "dow": "3"}}, {"geometry": {"type": "Point", "coordinates": [-117.243701167, 32.7963060105]}, "geomasked_geometry": {"type": "Point", "coordinates": [-117.24373, 32.796260000000004]}, "type": "Feature", "properties": {"week": "27", "gctype": "cns/segment", "address": "4300 Block Gresham Street", "gcquality": "65", "community": "SanPCF", "month": "7", "lat": "32.7963060105", "is_night": "0", "council": "San002", "year": "2012", "date": "41094", "id": "", "desc": "GRAND THEFT/UNSPECIFIED", "city": "SndSAN", "council_pop": "142456", "asr_zone": "3", "hour": "12", "segment_id": "32843", "lon": "-117.243701167", "longitude": -117.243701167, "day": "4568", "comm_pop": "39849", "time": "0.5", "latitude": 32.7963060105, "lampdist": "5000", "nbrhood": "SanPCF", "type": "THEFT/LARCENY", "dow": "3"}}, {"geometry": {"type": "Point", "coordinates": [-117.260232177, 32.8033405036]}, "geomasked_geometry": {"type": "Point", "coordinates": [-117.26025, 32.80328]}, "type": "Feature", "properties": {"week": "27", "gctype": "cns/segment", "address": "4900 Block Ocean Boulevard", "gcquality": "65", "community": "SanPCF", "month": "7", "lat": "32.8033405036", "is_night": "0", "council": "San002", "year": "2012", "date": "41094", "id": "", "desc": "OPEN CONTAINER IN PUBLIC PARK", "city": "SndSAN", "council_pop": "142456", "asr_zone": "2", "hour": "12", "segment_id": "180370", "lon": "-117.260232177", "longitude": -117.260232177, "day": "4568", "comm_pop": "39849", "time": "0.531944444444", "latitude": 32.8033405036, "lampdist": "3162", "nbrhood": "SanPCF", "type": "DRUGS/ALCOHOL VIOLATIONS", "dow": "3"}}, {"geometry": {"type": "Point", "coordinates": [-117.256176971, 32.7949128558]}, "geomasked_geometry": {"type": "Point", "coordinates": [-117.25612000000001, 32.794959999999996]}, "type": "Feature", "properties": {"week": "27", "gctype": "cns/segment", "address": "4400 Block Ocean Boulevard", "gcquality": "65", "community": "SanPCF", "month": "7", "lat": "32.7949128558", "is_night": "0", "council": "San002", "year": "2012", "date": "41094", "id": "", "desc": "GRAND THEFT:MONEY/LABOR/PROPERTY OVER $950", "city": "SndSAN", "council_pop": "142456", "asr_zone": "6", "hour": "13", "segment_id": "49748", "lon": "-117.256176971", "longitude": -117.256176971, "day": "4568", "comm_pop": "39849", "time": "0.541666666667", "latitude": 32.7949128558, "lampdist": "2000", "nbrhood": "SanPCF", "type": "THEFT/LARCENY", "dow": "3"}}, {"geometry": {"type": "Point", "coordinates": [-117.247340585, 32.7923569618]}, "geomasked_geometry": {"type": "Point", "coordinates": [-117.24723, 32.79244]}, "type": "Feature", "properties": {"week": "27", "gctype": "cns/segment", "address": "1100 Block Pacific Beach Drive", "gcquality": "65", "community": "SanPCF", "month": "7", "lat": "32.7923569618", "is_night": "0", "council": "San002", "year": "2012", "date": "41094", "id": "", "desc": "OPEN CONTAINER IN PUBLIC PARK", "city": "SndSAN", "council_pop": "142456", "asr_zone": "1", "hour": "14", "segment_id": "308", "lon": "-117.247340585", "longitude": -117.247340585, "day": "4568", "comm_pop": "39849", "time": "0.600694444444", "latitude": 32.7923569618, "lampdist": "8544", "nbrhood": "SanPCF", "type": "DRUGS/ALCOHOL VIOLATIONS", "dow": "3"}}, {"geometry": {"type": "Point", "coordinates": [-117.256798671, 32.7966338705]}, "geomasked_geometry": {"type": "Point", "coordinates": [-117.25671, 32.79656]}, "type": "Feature", "properties": {"week": "27", "gctype": "cns/segment", "address": "4500 Block Ocean Boulevard", "gcquality": "65", "community": "SanPCF", "month": "7", "lat": "32.7966338705", "is_night": "0", "council": "San002", "year": "2012", "date": "41094", "id": "", "desc": "OPEN CONTAINER IN PUBLIC PARK", "city": "SndSAN", "council_pop": "142456", "asr_zone": "6", "hour": "14", "segment_id": "49751", "lon": "-117.256798671", "longitude": -117.256798671, "day": "4568", "comm_pop": "39849", "time": "0.607638888889", "latitude": 32.7966338705, "lampdist": "1000", "nbrhood": "SanPCF", "type": "DRUGS/ALCOHOL VIOLATIONS", "dow": "3"}}, {"geometry": {"type": "Point", "coordinates": [-117.219149198, 32.8066686154]}, "geomasked_geometry": {"type": "Point", "coordinates": [-117.21916, 32.80674]}, "type": "Feature", "properties": {"week": "27", "gctype": "cns/segment", "address": "4700 Block Mission Bay Drive", "gcquality": "65", "community": "SanPCF", "month": "7", "lat": "32.8066686154", "is_night": "0", "council": "San002", "year": "2012", "date": "41094", "id": "", "desc": "DUI ALCOHOL AND/OR DRUGS", "city": "SndSAN", "council_pop": "142456", "asr_zone": "6", "hour": "14", "segment_id": "46656", "lon": "-117.219149198", "longitude": -117.219149198, "day": "4568", "comm_pop": "39849", "time": "0.621527777778", "latitude": 32.8066686154, "lampdist": "5000", "nbrhood": "SanPCF", "type": "DUI", "dow": "3"}}, {"geometry": {"type": "Point", "coordinates": [-117.225120345, 32.8011964927]}, "geomasked_geometry": {"type": "Point", "coordinates": [-117.22519, 32.80126]}, "type": "Feature", "properties": {"week": "27", "gctype": "cns/segment", "address": "2400 Block Grand Avenue", "gcquality": "65", "community": "SanPCF", "month": "7", "lat": "32.8011964927", "is_night": "0", "council": "San002", "year": "2012", "date": "41094", "id": "", "desc": "VANDALISM ($5000-$50000)", "city": "SndSAN", "council_pop": "142456", "asr_zone": "6", "hour": "15", "segment_id": "32153", "lon": "-117.225120345", "longitude": -117.225120345, "day": "4568", "comm_pop": "39849", "time": "0.625", "latitude": 32.8011964927, "lampdist": "3162", "nbrhood": "SanPCF", "type": "VANDALISM", "dow": "3"}}, {"geometry": {"type": "Point", "coordinates": [-117.240841225, 32.7902475787]}, "geomasked_geometry": {"type": "Point", "coordinates": [-117.24078999999999, 32.79018]}, "type": "Feature", "properties": {"week": "27", "gctype": "cns/segment", "address": "3900 Block Riviera Drive", "gcquality": "65", "community": "SanPCF", "month": "7", "lat": "32.7902475787", "is_night": "0", "council": "San002", "year": "2012", "date": "41094", "id": "", "desc": "OPEN CONTAINER IN PUBLIC PARK", "city": "SndSAN", "council_pop": "142456", "asr_zone": "1", "hour": "15", "segment_id": "55337", "lon": "-117.240841225", "longitude": -117.240841225, "day": "4568", "comm_pop": "39849", "time": "0.635416666667", "latitude": 32.7902475787, "lampdist": "4000", "nbrhood": "SanPCF", "type": "DRUGS/ALCOHOL VIOLATIONS", "dow": "3"}}, {"geometry": {"type": "Point", "coordinates": [-117.23880453, 32.809914489]}, "geomasked_geometry": {"type": "Point", "coordinates": [-117.23871, 32.80982]}, "type": "Feature", "properties": {"week": "27", "gctype": "cns/segment", "address": "5000 Block Soledad Road", "gcquality": "65", "community": "SanPCF", "month": "7", "lat": "32.809914489", "is_night": "0", "council": "San002", "year": "2012", "date": "41094", "id": "", "desc": "PETTY THEFT", "city": "SndSAN", "council_pop": "142456", "asr_zone": "7", "hour": "17", "segment_id": "58712", "lon": "-117.23880453", "longitude": -117.23880453, "day": "4568", "comm_pop": "39849", "time": "0.708333333333", "latitude": 32.809914489, "lampdist": "9848", "nbrhood": "SanPCF", "type": "THEFT/LARCENY", "dow": "3"}}, {"geometry": {"type": "Point", "coordinates": [-117.241409675, 32.7904477803]}, "geomasked_geometry": {"type": "Point", "coordinates": [-117.24133, 32.79038]}, "type": "Feature", "properties": {"week": "27", "gctype": "cns/segment", "address": "1300 Block Graham Street", "gcquality": "65", "community": "SanPCF", "month": "7", "lat": "32.7904477803", "is_night": "0", "council": "San002", "year": "2012", "date": "41094", "id": "", "desc": "OPEN CONTAINER IN PUBLIC PARK", "city": "SndSAN", "council_pop": "142456", "asr_zone": "1", "hour": "17", "segment_id": "32019", "lon": "-117.241409675", "longitude": -117.241409675, "day": "4568", "comm_pop": "39849", "time": "0.743055555556", "latitude": 32.7904477803, "lampdist": "5000", "nbrhood": "SanPCF", "type": "DRUGS/ALCOHOL VIOLATIONS", "dow": "3"}}, {"geometry": {"type": "Point", "coordinates": [-117.240841225, 32.7902475787]}, "geomasked_geometry": {"type": "Point", "coordinates": [-117.2408, 32.790259999999996]}, "type": "Feature", "properties": {"week": "27", "gctype": "cns/segment", "address": "3900 Block Riviera Drive", "gcquality": "65", "community": "SanPCF", "month": "7", "lat": "32.7902475787", "is_night": "0", "council": "San002", "year": "2012", "date": "41094", "id": "", "desc": "OPEN CONTAINER IN PUBLIC PARK", "city": "SndSAN", "council_pop": "142456", "asr_zone": "1", "hour": "17", "segment_id": "55337", "lon": "-117.240841225", "longitude": -117.240841225, "day": "4568", "comm_pop": "39849", "time": "0.743055555556", "latitude": 32.7902475787, "lampdist": "4000", "nbrhood": "SanPCF", "type": "DRUGS/ALCOHOL VIOLATIONS", "dow": "3"}}, {"geometry": {"type": "Point", "coordinates": [-117.244680395, 32.7931715251]}, "geomasked_geometry": {"type": "Point", "coordinates": [-117.24467, 32.79314]}, "type": "Feature", "properties": {"week": "27", "gctype": "cns/segment", "address": "4100 Block Fanuel Street", "gcquality": "65", "community": "SanPCF", "month": "7", "lat": "32.7931715251", "is_night": "0", "council": "San002", "year": "2012", "date": "41094", "id": "", "desc": "TAMPER WITH AUTO", "city": "SndSAN", "council_pop": "142456", "asr_zone": "1", "hour": "19", "segment_id": "28769", "lon": "-117.244680395", "longitude": -117.244680395, "day": "4568", "comm_pop": "39849", "time": "0.791666666667", "latitude": 32.7931715251, "lampdist": "2236", "nbrhood": "SanPCF", "type": "THEFT/LARCENY", "dow": "3"}}, {"geometry": {"type": "Point", "coordinates": [-117.234134934, 32.7836622241]}, "geomasked_geometry": {"type": "Point", "coordinates": [-117.23413, 32.78361]}, "type": "Feature", "properties": {"week": "27", "gctype": "cns/segment", "address": "3500 Block Crown Point Drive", "gcquality": "65", "community": "SanPCF", "month": "7", "lat": "32.7836622241", "is_night": "0", "council": "San002", "year": "2012", "date": "41094", "id": "", "desc": "OPEN CONTAINER IN PUBLIC PARK", "city": "SndSAN", "council_pop": "142456", "asr_zone": "1", "hour": "19", "segment_id": "20827", "lon": "-117.234134934", "longitude": -117.234134934, "day": "4568", "comm_pop": "39849", "time": "0.809027777778", "latitude": 32.7836622241, "lampdist": "2828", "nbrhood": "SanPCF", "type": "DRUGS/ALCOHOL VIOLATIONS", "dow": "3"}}, {"geometry": {"type": "Point", "coordinates": [-117.240481228, 32.789052106]}, "geomasked_geometry": {"type": "Point", "coordinates": [-117.24047999999999, 32.7891]}, "type": "Feature", "properties": {"week": "27", "gctype": "cns/segment", "address": "3800 Block Riviera Drive", "gcquality": "65", "community": "SanPCF", "month": "7", "lat": "32.789052106", "is_night": "0", "council": "San002", "year": "2012", "date": "41094", "id": "", "desc": "OPEN CONTAINER IN PUBLIC PARK", "city": "SndSAN", "council_pop": "142456", "asr_zone": "1", "hour": "20", "segment_id": "55329", "lon": "-117.240481228", "longitude": -117.240481228, "day": "4568", "comm_pop": "39849", "time": "0.847222222222", "latitude": 32.789052106, "lampdist": "10198", "nbrhood": "SanPCF", "type": "DRUGS/ALCOHOL VIOLATIONS", "dow": "3"}}, {"geometry": {"type": "Point", "coordinates": [-117.245438353, 32.7987773605]}, "geomasked_geometry": {"type": "Point", "coordinates": [-117.24543, 32.79886]}, "type": "Feature", "properties": {"week": "27", "gctype": "cns/segment", "address": "1300 Block Garnet Avenue", "gcquality": "65", "community": "SanPCF", "month": "7", "lat": "32.7987773605", "is_night": "0", "council": "San002", "year": "2012", "date": "41094", "id": "", "desc": "VANDALISM ($400 OR MORE)", "city": "SndSAN", "council_pop": "142456", "asr_zone": "6", "hour": "20", "segment_id": "30943", "lon": "-117.245438353", "longitude": -117.245438353, "day": "4568", "comm_pop": "39849", "time": "0.857638888889", "latitude": 32.7987773605, "lampdist": "1000", "nbrhood": "SanPCF", "type": "VANDALISM", "dow": "3"}}, {"geometry": {"type": "Point", "coordinates": [-117.250922423, 32.7975735571]}, "geomasked_geometry": {"type": "Point", "coordinates": [-117.25081, 32.79751]}, "type": "Feature", "properties": {"week": "27", "gctype": "cns/segment", "address": "1000 Block Garnet Avenue", "gcquality": "65", "community": "SanPCF", "month": "7", "lat": "32.7975735571", "is_night": "1", "council": "San002", "year": "2012", "date": "41094", "id": "", "desc": "BATTERY W/SERIOUS BODILY INJURY", "city": "SndSAN", "council_pop": "142456", "asr_zone": "6", "hour": "21", "segment_id": "30949", "lon": "-117.250922423", "longitude": -117.250922423, "day": "4568", "comm_pop": "39849", "time": "0.90625", "latitude": 32.7975735571, "lampdist": "1000", "nbrhood": "SanPCF", "type": "ASSAULT", "dow": "3"}}, {"geometry": {"type": "Point", "coordinates": [-117.255893986, 32.7939270619]}, "geomasked_geometry": {"type": "Point", "coordinates": [-117.25598, 32.79398]}, "type": "Feature", "properties": {"week": "27", "gctype": "cns/segment", "address": "4300 Block Ocean Boulevard", "gcquality": "65", "community": "SanPCF", "month": "7", "lat": "32.7939270619", "is_night": "1", "council": "San002", "year": "2012", "date": "41094", "id": "", "desc": "BATTERY ON PERSON", "city": "SndSAN", "council_pop": "142456", "asr_zone": "6", "hour": "22", "segment_id": "49749", "lon": "-117.255893986", "longitude": -117.255893986, "day": "4568", "comm_pop": "39849", "time": "0.916666666667", "latitude": 32.7939270619, "lampdist": "0", "nbrhood": "SanPCF", "type": "ASSAULT", "dow": "3"}}, {"geometry": {"type": "Point", "coordinates": [-117.24726925, 32.7983764137]}, "geomasked_geometry": {"type": "Point", "coordinates": [-117.24723999999999, 32.79831]}, "type": "Feature", "properties": {"week": "27", "gctype": "cns/segment", "address": "1200 Block Garnet Avenue", "gcquality": "65", "community": "SanPCF", "month": "7", "lat": "32.7983764137", "is_night": "1", "council": "San002", "year": "2012", "date": "41094", "id": "", "desc": "PETTY THEFT,DOG VALUE $950 OR LESS", "city": "SndSAN", "council_pop": "142456", "asr_zone": "6", "hour": "22", "segment_id": "30950", "lon": "-117.24726925", "longitude": -117.24726925, "day": "4568", "comm_pop": "39849", "time": "0.9375", "latitude": 32.7983764137, "lampdist": "1000", "nbrhood": "SanPCF", "type": "THEFT/LARCENY", "dow": "3"}}, {"geometry": {"type": "Point", "coordinates": [-117.25710236, 32.7981999141]}, "geomasked_geometry": {"type": "Point", "coordinates": [-117.25702, 32.79813]}, "type": "Feature", "properties": {"week": "27", "gctype": "cns/segment", "address": "700 Block Emerald Street", "gcquality": "65", "community": "SanPCF", "month": "7", "lat": "32.7981999141", "is_night": "1", "council": "San002", "year": "2012", "date": "41094", "id": "", "desc": "VANDALISM (LESS THAN $400)", "city": "SndSAN", "council_pop": "142456", "asr_zone": "1", "hour": "22", "segment_id": "27220", "lon": "-117.25710236", "longitude": -117.25710236, "day": "4568", "comm_pop": "39849", "time": "0.9375", "latitude": 32.7981999141, "lampdist": "4123", "nbrhood": "SanPCF", "type": "VANDALISM", "dow": "3"}}, {"geometry": {"type": "Point", "coordinates": [-117.259324418, 32.8067526143]}, "geomasked_geometry": {"type": "Point", "coordinates": [-117.25932, 32.806760000000004]}, "type": "Feature", "properties": {"week": "27", "gctype": "cns/segment", "address": "700 Block Tourmaline Street", "gcquality": "65", "community": "SanPCF", "month": "7", "lat": "32.8067526143", "is_night": "1", "council": "San002", "year": "2012", "date": "41094", "id": "", "desc": "PETTY THEFT / THEFT OF PERSONAL PROPERTY / SHOPLIFT", "city": "SndSAN", "council_pop": "142456", "asr_zone": "1", "hour": "23", "segment_id": "61271", "lon": "-117.259324418", "longitude": -117.259324418, "day": "4568", "comm_pop": "39849", "time": "0.958333333333", "latitude": 32.8067526143, "lampdist": "1414", "nbrhood": "SanPCF", "type": "THEFT/LARCENY", "dow": "3"}}, {"geometry": {"type": "Point", "coordinates": [-117.256792976, 32.7972743269]}, "geomasked_geometry": {"type": "Point", "coordinates": [-117.25686999999999, 32.79728]}, "type": "Feature", "properties": {"week": "27", "gctype": "cns/segment", "address": "700 Block Felspar Street", "gcquality": "65", "community": "SanPCF", "month": "7", "lat": "32.7972743269", "is_night": "1", "council": "San002", "year": "2012", "date": "41094", "id": "", "desc": "OPEN CONTAINER IN PUBLIC PARK", "city": "SndSAN", "council_pop": "142456", "asr_zone": "1", "hour": "23", "segment_id": "29049", "lon": "-117.256792976", "longitude": -117.256792976, "day": "4568", "comm_pop": "39849", "time": "0.986111111111", "latitude": 32.7972743269, "lampdist": "2236", "nbrhood": "SanPCF", "type": "DRUGS/ALCOHOL VIOLATIONS", "dow": "3"}}, {"geometry": {"type": "Point", "coordinates": [-117.252469332, 32.7962430802]}, "geomasked_geometry": {"type": "Point", "coordinates": [-117.25255, 32.79625]}, "type": "Feature", "properties": {"week": "27", "gctype": "cns/segment", "address": "900 Block Hornblend Street", "gcquality": "65", "community": "SanPCF", "month": "7", "lat": "32.7962430802", "is_night": "1", "council": "San002", "year": "2012", "date": "41094", "id": "", "desc": "VEHICLE BREAK-IN/THEFT", "city": "SndSAN", "council_pop": "142456", "asr_zone": "1", "hour": "23", "segment_id": "35996", "lon": "-117.252469332", "longitude": -117.252469332, "day": "4568", "comm_pop": "39849", "time": "0.996527777778", "latitude": 32.7962430802, "lampdist": "9219", "nbrhood": "SanPCF", "type": "VEHICLE BREAK-IN/THEFT", "dow": "3"}}, {"geometry": {"type": "Point", "coordinates": [-117.256792976, 32.7972743269]}, "geomasked_geometry": {"type": "Point", "coordinates": [-117.25677999999999, 32.79724]}, "type": "Feature", "properties": {"week": "27", "gctype": "cns/segment", "address": "700 Block Felspar Street", "gcquality": "65", "community": "SanPCF", "month": "7", "lat": "32.7972743269", "is_night": "1", "council": "San002", "year": "2012", "date": "41095", "id": "", "desc": "GRAND THEFT:MONEY/LABOR/PROPERTY OVER $950", "city": "SndSAN", "council_pop": "142456", "asr_zone": "1", "hour": "0", "segment_id": "29049", "lon": "-117.256792976", "longitude": -117.256792976, "day": "4569", "comm_pop": "39849", "time": "0", "latitude": 32.7972743269, "lampdist": "2236", "nbrhood": "SanPCF", "type": "THEFT/LARCENY", "dow": "4"}}, {"geometry": {"type": "Point", "coordinates": [-117.254984393, 32.7949198222]}, "geomasked_geometry": {"type": "Point", "coordinates": [-117.25504, 32.79484]}, "type": "Feature", "properties": {"week": "27", "gctype": "cns/segment", "address": "4400 Block Mission Boulevard", "gcquality": "65", "community": "SanPCF", "month": "7", "lat": "32.7949198222", "is_night": "1", "council": "San002", "year": "2012", "date": "41095", "id": "", "desc": "POSSESS NARCOTIC CONTROLLED SUBSTANCE", "city": "SndSAN", "council_pop": "142456", "asr_zone": "6", "hour": "1", "segment_id": "46545", "lon": "-117.254984393", "longitude": -117.254984393, "day": "4569", "comm_pop": "39849", "time": "0.0451388888889", "latitude": 32.7949198222, "lampdist": "1414", "nbrhood": "SanPCF", "type": "DRUGS/ALCOHOL VIOLATIONS", "dow": "4"}}, {"geometry": {"type": "Point", "coordinates": [-117.235029633, 32.7902528655]}, "geomasked_geometry": {"type": "Point", "coordinates": [-117.23506, 32.7903]}, "type": "Feature", "properties": {"week": "27", "gctype": "cns/segment", "address": "3800 Block Shasta Street", "gcquality": "65", "community": "SanPCF", "month": "7", "lat": "32.7902528655", "is_night": "1", "council": "San002", "year": "2012", "date": "41095", "id": "", "desc": "OTHER SEX CRIME", "city": "SndSAN", "council_pop": "142456", "asr_zone": "1", "hour": "1", "segment_id": "57811", "lon": "-117.235029633", "longitude": -117.235029633, "day": "4569", "comm_pop": "39849", "time": "0.0763888888889", "latitude": 32.7902528655, "lampdist": "8544", "nbrhood": "SanPCF", "type": "SEX CRIMES", "dow": "4"}}, {"geometry": {"type": "Point", "coordinates": [-117.23814588, 32.7941623035]}, "geomasked_geometry": {"type": "Point", "coordinates": [-117.23818, 32.79421]}, "type": "Feature", "properties": {"week": "27", "gctype": "cns/segment", "address": "1600 Block Pacific Highway", "gcquality": "55", "community": "SanPCF", "month": "7", "lat": "32.7941623035", "is_night": "0", "council": "San002", "year": "2012", "date": "41095", "id": "", "desc": "VANDALISM ($400 OR MORE)", "city": "SndSAN", "council_pop": "142456", "asr_zone": "3", "hour": "14", "segment_id": "294", "lon": "-117.23814588", "longitude": -117.23814588, "day": "4569", "comm_pop": "39849", "time": "0.611111111111", "latitude": 32.7941623035, "lampdist": "8000", "nbrhood": "SanPCF", "type": "VANDALISM", "dow": "4"}}, {"geometry": {"type": "Point", "coordinates": [-117.235659934, 32.7988878536]}, "geomasked_geometry": {"type": "Point", "coordinates": [-117.23563, 32.79891000000001]}, "type": "Feature", "properties": {"week": "27", "gctype": "cns/segment", "address": "1800 Block Grand Avenue", "gcquality": "65", "community": "SanPCF", "month": "7", "lat": "32.7988878536", "is_night": "1", "council": "San002", "year": "2012", "date": "41095", "id": "", "desc": "BATTERY W/SERIOUS BODILY INJURY", "city": "SndSAN", "council_pop": "142456", "asr_zone": "3", "hour": "23", "segment_id": "32133", "lon": "-117.235659934", "longitude": -117.235659934, "day": "4569", "comm_pop": "39849", "time": "0.96875", "latitude": 32.7988878536, "lampdist": "7071", "nbrhood": "SanPCF", "type": "ASSAULT", "dow": "4"}}, {"geometry": {"type": "Point", "coordinates": [-117.25577507, 32.7944846103]}, "geomasked_geometry": {"type": "Point", "coordinates": [-117.2558, 32.79459]}, "type": "Feature", "properties": {"week": "27", "gctype": "cns/segment", "address": "700 Block Grand Avenue", "gcquality": "65", "community": "SanPCF", "month": "7", "lat": "32.7944846103", "is_night": "1", "council": "San002", "year": "2012", "date": "41096", "id": "", "desc": "OPEN CONTAINER IN PUBLIC PARK", "city": "SndSAN", "council_pop": "142456", "asr_zone": "6", "hour": "1", "segment_id": "32136", "lon": "-117.25577507", "longitude": -117.25577507, "day": "4570", "comm_pop": "39849", "time": "0.0798611111111", "latitude": 32.7944846103, "lampdist": "3162", "nbrhood": "SanPCF", "type": "DRUGS/ALCOHOL VIOLATIONS", "dow": "5"}}, {"geometry": {"type": "Point", "coordinates": [-117.222258594, 32.8053679744]}, "geomasked_geometry": {"type": "Point", "coordinates": [-117.22227000000001, 32.80532]}, "type": "Feature", "properties": {"week": "27", "gctype": "cns/segment", "address": "2600 Block Garnet Avenue", "gcquality": "65", "community": "SanPCF", "month": "7", "lat": "32.8053679744", "is_night": "0", "council": "San002", "year": "2012", "date": "41096", "id": "", "desc": "OPEN CONTAINER IN PUBLIC PARK", "city": "SndSAN", "council_pop": "142456", "asr_zone": "6", "hour": "8", "segment_id": "30956", "lon": "-117.222258594", "longitude": -117.222258594, "day": "4570", "comm_pop": "39849", "time": "0.364583333333", "latitude": 32.8053679744, "lampdist": "1414", "nbrhood": "SanPCF", "type": "DRUGS/ALCOHOL VIOLATIONS", "dow": "5"}}, {"geometry": {"type": "Point", "coordinates": [-117.222258594, 32.8053679744]}, "geomasked_geometry": {"type": "Point", "coordinates": [-117.22239, 32.80542]}, "type": "Feature", "properties": {"week": "27", "gctype": "cns/segment", "address": "2600 Block Garnet Avenue", "gcquality": "65", "community": "SanPCF", "month": "7", "lat": "32.8053679744", "is_night": "0", "council": "San002", "year": "2012", "date": "41096", "id": "", "desc": "TAKE VEHICLE W/O OWNER'S CONSENT/VEHICLE THEFT", "city": "SndSAN", "council_pop": "142456", "asr_zone": "6", "hour": "9", "segment_id": "30956", "lon": "-117.222258594", "longitude": -117.222258594, "day": "4570", "comm_pop": "39849", "time": "0.395833333333", "latitude": 32.8053679744, "lampdist": "1414", "nbrhood": "SanPCF", "type": "MOTOR VEHICLE THEFT", "dow": "5"}}, {"geometry": {"type": "Point", "coordinates": [-117.257193032, 32.7976819704]}, "geomasked_geometry": {"type": "Point", "coordinates": [-117.25716, 32.79763]}, "type": "Feature", "properties": {"week": "27", "gctype": "cns/segment", "address": "4600 Block Ocean Boulevard", "gcquality": "65", "community": "SanPCF", "month": "7", "lat": "32.7976819704", "is_night": "0", "council": "San002", "year": "2012", "date": "41096", "id": "", "desc": "OPEN CONTAINER IN PUBLIC PARK", "city": "SndSAN", "council_pop": "142456", "asr_zone": "1", "hour": "10", "segment_id": "49753", "lon": "-117.257193032", "longitude": -117.257193032, "day": "4570", "comm_pop": "39849", "time": "0.416666666667", "latitude": 32.7976819704, "lampdist": "1000", "nbrhood": "SanPCF", "type": "DRUGS/ALCOHOL VIOLATIONS", "dow": "5"}}, {"geometry": {"type": "Point", "coordinates": [-117.251857932, 32.7942713876]}, "geomasked_geometry": {"type": "Point", "coordinates": [-117.25199, 32.79424]}, "type": "Feature", "properties": {"week": "27", "gctype": "cns/segment", "address": "900 Block Thomas Avenue", "gcquality": "65", "community": "SanPCF", "month": "7", "lat": "32.7942713876", "is_night": "0", "council": "San002", "year": "2012", "date": "41096", "id": "", "desc": "VEHICLE BREAK-IN/THEFT", "city": "SndSAN", "council_pop": "142456", "asr_zone": "3", "hour": "12", "segment_id": "60762", "lon": "-117.251857932", "longitude": -117.251857932, "day": "4570", "comm_pop": "39849", "time": "0.5", "latitude": 32.7942713876, "lampdist": "8000", "nbrhood": "SanPCF", "type": "VEHICLE BREAK-IN/THEFT", "dow": "5"}}, {"geometry": {"type": "Point", "coordinates": [-117.23910071, 32.7883980302]}, "geomasked_geometry": {"type": "Point", "coordinates": [-117.23907999999999, 32.788470000000004]}, "type": "Feature", "properties": {"week": "27", "gctype": "cns/segment", "address": "1500 Block La Playa Avenue", "gcquality": "65", "community": "SanPCF", "month": "7", "lat": "32.7883980302", "is_night": "0", "council": "San002", "year": "2012", "date": "41096", "id": "", "desc": "GRAND THEFT/UNSPECIFIED", "city": "SndSAN", "council_pop": "142456", "asr_zone": "3", "hour": "14", "segment_id": "40974", "lon": "-117.23910071", "longitude": -117.23910071, "day": "4570", "comm_pop": "39849", "time": "0.583333333333", "latitude": 32.7883980302, "lampdist": "1414", "nbrhood": "SanPCF", "type": "THEFT/LARCENY", "dow": "5"}}, {"geometry": {"type": "Point", "coordinates": [-117.239324963, 32.7980773645]}, "geomasked_geometry": {"type": "Point", "coordinates": [-117.23928, 32.79801]}, "type": "Feature", "properties": {"week": "27", "gctype": "cns/segment", "address": "1600 Block Grand Avenue", "gcquality": "65", "community": "SanPCF", "month": "7", "lat": "32.7980773645", "is_night": "0", "council": "San002", "year": "2012", "date": "41096", "id": "", "desc": "BATTERY WITH SERIOUS BODILY INJURY (F)", "city": "SndSAN", "council_pop": "142456", "asr_zone": "6", "hour": "18", "segment_id": "32134", "lon": "-117.239324963", "longitude": -117.239324963, "day": "4570", "comm_pop": "39849", "time": "0.75", "latitude": 32.7980773645, "lampdist": "1414", "nbrhood": "SanPCF", "type": "ASSAULT", "dow": "5"}}, {"geometry": {"type": "Point", "coordinates": [-117.244254531, 32.7949460654]}, "geomasked_geometry": {"type": "Point", "coordinates": [-117.24427999999999, 32.79499]}, "type": "Feature", "properties": {"week": "27", "gctype": "cns/segment", "address": "1300 Block Reed Avenue", "gcquality": "65", "community": "SanPCF", "month": "7", "lat": "32.7949460654", "is_night": "0", "council": "San002", "year": "2012", "date": "41096", "id": "", "desc": "GRAND THEFT:MONEY/LABOR/PROPERTY OVER $950", "city": "SndSAN", "council_pop": "142456", "asr_zone": "3", "hour": "20", "segment_id": "54761", "lon": "-117.244254531", "longitude": -117.244254531, "day": "4570", "comm_pop": "39849", "time": "0.833333333333", "latitude": 32.7949460654, "lampdist": "7000", "nbrhood": "SanPCF", "type": "THEFT/LARCENY", "dow": "5"}}, {"geometry": {"type": "Point", "coordinates": [-117.221937301, 32.8038285764]}, "geomasked_geometry": {"type": "Point", "coordinates": [-117.22197, 32.803720000000006]}, "type": "Feature", "properties": {"week": "27", "gctype": "cns/segment", "address": "2600 Block Magnolia Avenue", "gcquality": "65", "community": "SanPCF", "month": "7", "lat": "32.8038285764", "is_night": "1", "council": "San002", "year": "2012", "date": "41096", "id": "", "desc": "DRUNK, PROTECTIVE CUSTODY", "city": "SndSAN", "council_pop": "142456", "asr_zone": "3", "hour": "21", "segment_id": "44094", "lon": "-117.221937301", "longitude": -117.221937301, "day": "4570", "comm_pop": "39849", "time": "0.885416666667", "latitude": 32.8038285764, "lampdist": "5385", "nbrhood": "SanPCF", "type": "DRUGS/ALCOHOL VIOLATIONS", "dow": "5"}}, {"geometry": {"type": "Point", "coordinates": [-117.234112994, 32.8057451146]}, "geomasked_geometry": {"type": "Point", "coordinates": [-117.23411, 32.805640000000004]}, "type": "Feature", "properties": {"week": "27", "gctype": "cns/segment", "address": "4700 Block Academy Place", "gcquality": "54", "community": "SanPCF", "month": "7", "lat": "32.8057451146", "is_night": "1", "council": "San002", "year": "2012", "date": "41096", "id": "", "desc": "TAKE VEHICLE W/O OWNER'S CONSENT/VEHICLE THEFT", "city": "SndSAN", "council_pop": "142456", "asr_zone": "3", "hour": "22", "segment_id": "6420", "lon": "-117.234112994", "longitude": -117.234112994, "day": "4570", "comm_pop": "39849", "time": "0.916666666667", "latitude": 32.8057451146, "lampdist": "3605", "nbrhood": "SanPCF", "type": "MOTOR VEHICLE THEFT", "dow": "5"}}, {"geometry": {"type": "Point", "coordinates": [-117.254984393, 32.7949198222]}, "geomasked_geometry": {"type": "Point", "coordinates": [-117.25496, 32.79493]}, "type": "Feature", "properties": {"week": "27", "gctype": "cns/segment", "address": "4400 Block Mission Boulevard", "gcquality": "65", "community": "SanPCF", "month": "7", "lat": "32.7949198222", "is_night": "1", "council": "San002", "year": "2012", "date": "41096", "id": "", "desc": "DISORDERLY CONDUCT: ALCOHOL", "city": "SndSAN", "council_pop": "142456", "asr_zone": "6", "hour": "22", "segment_id": "46545", "lon": "-117.254984393", "longitude": -117.254984393, "day": "4570", "comm_pop": "39849", "time": "0.947916666667", "latitude": 32.7949198222, "lampdist": "1414", "nbrhood": "SanPCF", "type": "DRUGS/ALCOHOL VIOLATIONS", "dow": "5"}}, {"geometry": {"type": "Point", "coordinates": [-117.254984393, 32.7949198222]}, "geomasked_geometry": {"type": "Point", "coordinates": [-117.25497999999999, 32.79481]}, "type": "Feature", "properties": {"week": "27", "gctype": "cns/segment", "address": "4400 Block Mission Boulevard", "gcquality": "65", "community": "SanPCF", "month": "7", "lat": "32.7949198222", "is_night": "1", "council": "San002", "year": "2012", "date": "41096", "id": "", "desc": "BATTERY ON PERSON", "city": "SndSAN", "council_pop": "142456", "asr_zone": "6", "hour": "23", "segment_id": "46545", "lon": "-117.254984393", "longitude": -117.254984393, "day": "4570", "comm_pop": "39849", "time": "0.961805555556", "latitude": 32.7949198222, "lampdist": "1414", "nbrhood": "SanPCF", "type": "ASSAULT", "dow": "5"}}, {"geometry": {"type": "Point", "coordinates": [-117.254152945, 32.7922082824]}, "geomasked_geometry": {"type": "Point", "coordinates": [-117.25419, 32.792120000000004]}, "type": "Feature", "properties": {"week": "27", "gctype": "cns/segment", "address": "4200 Block Mission Boulevard", "gcquality": "65", "community": "SanPCF", "month": "7", "lat": "32.7922082824", "is_night": "1", "council": "San002", "year": "2012", "date": "41096", "id": "", "desc": "OPEN CONTAINER IN PUBLIC PARK", "city": "SndSAN", "council_pop": "142456", "asr_zone": "6", "hour": "23", "segment_id": "46539", "lon": "-117.254152945", "longitude": -117.254152945, "day": "4570", "comm_pop": "39849", "time": "0.989583333333", "latitude": 32.7922082824, "lampdist": "1414", "nbrhood": "SanPCF", "type": "DRUGS/ALCOHOL VIOLATIONS", "dow": "5"}}, {"geometry": {"type": "Point", "coordinates": [-117.255509752, 32.7934780574]}, "geomasked_geometry": {"type": "Point", "coordinates": [-117.25543, 32.79355]}, "type": "Feature", "properties": {"week": "27", "gctype": "cns/segment", "address": "700 Block Thomas Avenue", "gcquality": "65", "community": "SanPCF", "month": "7", "lat": "32.7934780574", "is_night": "1", "council": "San002", "year": "2012", "date": "41096", "id": "", "desc": "MINOR POSSESS ALCOHOL", "city": "SndSAN", "council_pop": "142456", "asr_zone": "6", "hour": "23", "segment_id": "60765", "lon": "-117.255509752", "longitude": -117.255509752, "day": "4570", "comm_pop": "39849", "time": "0.993055555556", "latitude": 32.7934780574, "lampdist": "2236", "nbrhood": "SanPCF", "type": "DRUGS/ALCOHOL VIOLATIONS", "dow": "5"}}, {"geometry": {"type": "Point", "coordinates": [-117.235489247, 32.8049064744]}, "geomasked_geometry": {"type": "Point", "coordinates": [-117.2355, 32.804970000000004]}, "type": "Feature", "properties": {"week": "27", "gctype": "cns/segment", "address": "1900 Block Missouri Street", "gcquality": "65", "community": "SanPCF", "month": "7", "lat": "32.8049064744", "is_night": "1", "council": "San002", "year": "2012", "date": "41097", "id": "", "desc": "VEHICLE BREAK-IN/THEFT", "city": "SndSAN", "council_pop": "142456", "asr_zone": "3", "hour": "0", "segment_id": "46919", "lon": "-117.235489247", "longitude": -117.235489247, "day": "4571", "comm_pop": "39849", "time": "0", "latitude": 32.8049064744, "lampdist": "10198", "nbrhood": "SanPCF", "type": "VEHICLE BREAK-IN/THEFT", "dow": "6"}}, {"geometry": {"type": "Point", "coordinates": [-117.24726925, 32.7983764137]}, "geomasked_geometry": {"type": "Point", "coordinates": [-117.24728999999999, 32.79834]}, "type": "Feature", "properties": {"week": "27", "gctype": "cns/segment", "address": "1200 Block Garnet Avenue", "gcquality": "65", "community": "SanPCF", "month": "7", "lat": "32.7983764137", "is_night": "1", "council": "San002", "year": "2012", "date": "41097", "id": "", "desc": "BATTERY ON PERSON", "city": "SndSAN", "council_pop": "142456", "asr_zone": "6", "hour": "1", "segment_id": "30950", "lon": "-117.24726925", "longitude": -117.24726925, "day": "4571", "comm_pop": "39849", "time": "0.0583333333333", "latitude": 32.7983764137, "lampdist": "1000", "nbrhood": "SanPCF", "type": "ASSAULT", "dow": "6"}}, {"geometry": {"type": "Point", "coordinates": [-117.246865683, 32.8104846588]}, "geomasked_geometry": {"type": "Point", "coordinates": [-117.24696999999999, 32.81053]}, "type": "Feature", "properties": {"week": "27", "gctype": "cns/segment", "address": "5100 Block Castle Hills Drive", "gcquality": "65", "community": "SanPCF", "month": "7", "lat": "32.8104846588", "is_night": "1", "council": "San002", "year": "2012", "date": "41097", "id": "", "desc": "TAKE VEHICLE W/O OWNER'S CONSENT/VEHICLE THEFT", "city": "SndSAN", "council_pop": "142456", "asr_zone": "1", "hour": "1", "segment_id": "16556", "lon": "-117.246865683", "longitude": -117.246865683, "day": "4571", "comm_pop": "39849", "time": "0.0625", "latitude": 32.8104846588, "lampdist": "1414", "nbrhood": "SanPCF", "type": "MOTOR VEHICLE THEFT", "dow": "6"}}, {"geometry": {"type": "Point", "coordinates": [-117.250922423, 32.7975735571]}, "geomasked_geometry": {"type": "Point", "coordinates": [-117.25098, 32.79758]}, "type": "Feature", "properties": {"week": "27", "gctype": "cns/segment", "address": "1000 Block Garnet Avenue", "gcquality": "65", "community": "SanPCF", "month": "7", "lat": "32.7975735571", "is_night": "1", "council": "San002", "year": "2012", "date": "41097", "id": "", "desc": "DUI ALCOHOL AND/OR DRUGS", "city": "SndSAN", "council_pop": "142456", "asr_zone": "6", "hour": "1", "segment_id": "30949", "lon": "-117.250922423", "longitude": -117.250922423, "day": "4571", "comm_pop": "39849", "time": "0.0694444444444", "latitude": 32.7975735571, "lampdist": "1000", "nbrhood": "SanPCF", "type": "DUI", "dow": "6"}}, {"geometry": {"type": "Point", "coordinates": [-117.244845809, 32.7968622986]}, "geomasked_geometry": {"type": "Point", "coordinates": [-117.24486999999999, 32.79699]}, "type": "Feature", "properties": {"week": "27", "gctype": "cns/segment", "address": "1300 Block Grand Avenue", "gcquality": "65", "community": "SanPCF", "month": "7", "lat": "32.7968622986", "is_night": "1", "council": "San002", "year": "2012", "date": "41097", "id": "", "desc": "DUI ALCOHOL AND/OR DRUGS", "city": "SndSAN", "council_pop": "142456", "asr_zone": "1", "hour": "2", "segment_id": "32143", "lon": "-117.244845809", "longitude": -117.244845809, "day": "4571", "comm_pop": "39849", "time": "0.118055555556", "latitude": 32.7968622986, "lampdist": "8000", "nbrhood": "SanPCF", "type": "DUI", "dow": "6"}}, {"geometry": {"type": "Point", "coordinates": [-117.223134018, 32.8068356633]}, "geomasked_geometry": {"type": "Point", "coordinates": [-117.22311, 32.8068]}, "type": "Feature", "properties": {"week": "27", "gctype": "cns/segment", "address": "4700 Block Pico Street", "gcquality": "65", "community": "SanPCF", "month": "7", "lat": "32.8068356633", "is_night": "0", "council": "San002", "year": "2012", "date": "41097", "id": "", "desc": "USE/UNDER INFLUENCE OF CONTROLLED SUBSTANCE", "city": "SndSAN", "council_pop": "142456", "asr_zone": "1", "hour": "6", "segment_id": "52862", "lon": "-117.223134018", "longitude": -117.223134018, "day": "4571", "comm_pop": "39849", "time": "0.256944444444", "latitude": 32.8068356633, "lampdist": "2828", "nbrhood": "SanPCF", "type": "DRUGS/ALCOHOL VIOLATIONS", "dow": "6"}}, {"geometry": {"type": "Point", "coordinates": [-117.253876142, 32.7913048182]}, "geomasked_geometry": {"type": "Point", "coordinates": [-117.25381, 32.79128]}, "type": "Feature", "properties": {"week": "27", "gctype": "cns/segment", "address": "4100 Block Mission Boulevard", "gcquality": "65", "community": "SanPCF", "month": "7", "lat": "32.7913048182", "is_night": "0", "council": "San002", "year": "2012", "date": "41097", "id": "", "desc": "DUI ALCOHOL AND/OR DRUGS", "city": "SndSAN", "council_pop": "142456", "asr_zone": "6", "hour": "8", "segment_id": "46538", "lon": "-117.253876142", "longitude": -117.253876142, "day": "4571", "comm_pop": "39849", "time": "0.340277777778", "latitude": 32.7913048182, "lampdist": "1414", "nbrhood": "SanPCF", "type": "DUI", "dow": "6"}}, {"geometry": {"type": "Point", "coordinates": [-117.250151534, 32.8077782593]}, "geomasked_geometry": {"type": "Point", "coordinates": [-117.25011, 32.80775]}, "type": "Feature", "properties": {"week": "27", "gctype": "cns/segment", "address": "1200 Block Opal Street", "gcquality": "65", "community": "SanPCF", "month": "7", "lat": "32.8077782593", "is_night": "0", "council": "San002", "year": "2012", "date": "41097", "id": "", "desc": "TAKE VEHICLE W/O OWNER'S CONSENT/VEHICLE THEFT", "city": "SndSAN", "council_pop": "142456", "asr_zone": "1", "hour": "14", "segment_id": "50517", "lon": "-117.250151534", "longitude": -117.250151534, "day": "4571", "comm_pop": "39849", "time": "0.604166666667", "latitude": 32.8077782593, "lampdist": "7000", "nbrhood": "SanPCF", "type": "MOTOR VEHICLE THEFT", "dow": "6"}}, {"geometry": {"type": "Point", "coordinates": [-117.255557392, 32.796795159]}, "geomasked_geometry": {"type": "Point", "coordinates": [-117.25562000000001, 32.7968]}, "type": "Feature", "properties": {"week": "27", "gctype": "cns/segment", "address": "4500 Block Mission Boulevard", "gcquality": "65", "community": "SanPCF", "month": "7", "lat": "32.796795159", "is_night": "0", "council": "San002", "year": "2012", "date": "41097", "id": "", "desc": "PETTY THEFT / THEFT OF PERSONAL PROPERTY / SHOPLIFT", "city": "SndSAN", "council_pop": "142456", "asr_zone": "6", "hour": "14", "segment_id": "46548", "lon": "-117.255557392", "longitude": -117.255557392, "day": "4571", "comm_pop": "39849", "time": "0.614583333333", "latitude": 32.796795159, "lampdist": "1414", "nbrhood": "SanPCF", "type": "THEFT/LARCENY", "dow": "6"}}, {"geometry": {"type": "Point", "coordinates": [-117.256095207, 32.7954467392]}, "geomasked_geometry": {"type": "Point", "coordinates": [-117.25616000000001, 32.79548]}, "type": "Feature", "properties": {"week": "27", "gctype": "cns/segment", "address": "700 Block Hornblend Street", "gcquality": "65", "community": "SanPCF", "month": "7", "lat": "32.7954467392", "is_night": "0", "council": "San002", "year": "2012", "date": "41097", "id": "", "desc": "DISORDERLY CONDUCT: ALCOHOL", "city": "SndSAN", "council_pop": "142456", "asr_zone": "6", "hour": "15", "segment_id": "35994", "lon": "-117.256095207", "longitude": -117.256095207, "day": "4571", "comm_pop": "39849", "time": "0.661111111111", "latitude": 32.7954467392, "lampdist": "2236", "nbrhood": "SanPCF", "type": "DRUGS/ALCOHOL VIOLATIONS", "dow": "6"}}, {"geometry": {"type": "Point", "coordinates": [-117.245356407, 32.7922850239]}, "geomasked_geometry": {"type": "Point", "coordinates": [-117.24531, 32.79233]}, "type": "Feature", "properties": {"week": "27", "gctype": "cns/segment", "address": "1200 Block Parker Place", "gcquality": "65", "community": "SanPCF", "month": "7", "lat": "32.7922850239", "is_night": "0", "council": "San002", "year": "2012", "date": "41097", "id": "", "desc": "TAKE VEHICLE W/O OWNER'S CONSENT/VEHICLE THEFT", "city": "SndSAN", "council_pop": "142456", "asr_zone": "1", "hour": "18", "segment_id": "52098", "lon": "-117.245356407", "longitude": -117.245356407, "day": "4571", "comm_pop": "39849", "time": "0.75", "latitude": 32.7922850239, "lampdist": "4472", "nbrhood": "SanPCF", "type": "MOTOR VEHICLE THEFT", "dow": "6"}}, {"geometry": {"type": "Point", "coordinates": [-117.23650199, 32.7918435021]}, "geomasked_geometry": {"type": "Point", "coordinates": [-117.23653, 32.791720000000005]}, "type": "Feature", "properties": {"week": "27", "gctype": "cns/segment", "address": "3900 Block Jewell Street", "gcquality": "65", "community": "SanPCF", "month": "7", "lat": "32.7918435021", "is_night": "0", "council": "San002", "year": "2012", "date": "41097", "id": "", "desc": "VEHICLE BREAK-IN/THEFT", "city": "SndSAN", "council_pop": "142456", "asr_zone": "1", "hour": "19", "segment_id": "38981", "lon": "-117.23650199", "longitude": -117.23650199, "day": "4571", "comm_pop": "39849", "time": "0.804861111111", "latitude": 32.7918435021, "lampdist": "8944", "nbrhood": "SanPCF", "type": "VEHICLE BREAK-IN/THEFT", "dow": "6"}}, {"geometry": {"type": "Point", "coordinates": [-117.237887287, 32.7900197653]}, "geomasked_geometry": {"type": "Point", "coordinates": [-117.23794, 32.78995]}, "type": "Feature", "properties": {"week": "27", "gctype": "cns/segment", "address": "3900 Block Ingraham Street", "gcquality": "65", "community": "SanPCF", "month": "7", "lat": "32.7900197653", "is_night": "0", "council": "San002", "year": "2012", "date": "41097", "id": "", "desc": "PETTY THEFT / THEFT OF PERSONAL PROPERTY / SHOPLIFT", "city": "SndSAN", "council_pop": "142456", "asr_zone": "3", "hour": "20", "segment_id": "37430", "lon": "-117.237887287", "longitude": -117.237887287, "day": "4571", "comm_pop": "39849", "time": "0.857638888889", "latitude": 32.7900197653, "lampdist": "2236", "nbrhood": "SanPCF", "type": "THEFT/LARCENY", "dow": "6"}}, {"geometry": {"type": "Point", "coordinates": [-117.256427661, 32.7963469248]}, "geomasked_geometry": {"type": "Point", "coordinates": [-117.25639, 32.79627]}, "type": "Feature", "properties": {"week": "27", "gctype": "cns/segment", "address": "700 Block Garnet Avenue", "gcquality": "65", "community": "SanPCF", "month": "7", "lat": "32.7963469248", "is_night": "0", "council": "San002", "year": "2012", "date": "41097", "id": "", "desc": "MINOR POSSESS ALCOHOL", "city": "SndSAN", "council_pop": "142456", "asr_zone": "1", "hour": "20", "segment_id": "30945", "lon": "-117.256427661", "longitude": -117.256427661, "day": "4571", "comm_pop": "39849", "time": "0.861111111111", "latitude": 32.7963469248, "lampdist": "1414", "nbrhood": "SanPCF", "type": "DRUGS/ALCOHOL VIOLATIONS", "dow": "6"}}, {"geometry": {"type": "Point", "coordinates": [-117.256427661, 32.7963469248]}, "geomasked_geometry": {"type": "Point", "coordinates": [-117.25636, 32.796350000000004]}, "type": "Feature", "properties": {"week": "27", "gctype": "cns/segment", "address": "700 Block Garnet Avenue", "gcquality": "65", "community": "SanPCF", "month": "7", "lat": "32.7963469248", "is_night": "1", "council": "San002", "year": "2012", "date": "41097", "id": "", "desc": "MINOR POSSESS ALCOHOL", "city": "SndSAN", "council_pop": "142456", "asr_zone": "1", "hour": "21", "segment_id": "30945", "lon": "-117.256427661", "longitude": -117.256427661, "day": "4571", "comm_pop": "39849", "time": "0.875", "latitude": 32.7963469248, "lampdist": "1414", "nbrhood": "SanPCF", "type": "DRUGS/ALCOHOL VIOLATIONS", "dow": "6"}}, {"geometry": {"type": "Point", "coordinates": [-117.258812218, 32.8053674129]}, "geomasked_geometry": {"type": "Point", "coordinates": [-117.25873999999999, 32.80546]}, "type": "Feature", "properties": {"week": "27", "gctype": "cns/segment", "address": "5000 Block La Jolla Boulevard", "gcquality": "65", "community": "SanPCF", "month": "7", "lat": "32.8053674129", "is_night": "1", "council": "San002", "year": "2012", "date": "41097", "id": "", "desc": "PETTY THEFT / THEFT OF PERSONAL PROPERTY / SHOPLIFT", "city": "SndSAN", "council_pop": "142456", "asr_zone": "3", "hour": "21", "segment_id": "40693", "lon": "-117.258812218", "longitude": -117.258812218, "day": "4571", "comm_pop": "39849", "time": "0.875", "latitude": 32.8053674129, "lampdist": "5830", "nbrhood": "SanPCF", "type": "THEFT/LARCENY", "dow": "6"}}, {"geometry": {"type": "Point", "coordinates": [-117.235377355, 32.788176319]}, "geomasked_geometry": {"type": "Point", "coordinates": [-117.23536, 32.78811]}, "type": "Feature", "properties": {"week": "27", "gctype": "cns/segment", "address": "3700 Block Jewell Street", "gcquality": "65", "community": "SanPCF", "month": "7", "lat": "32.788176319", "is_night": "1", "council": "San002", "year": "2012", "date": "41097", "id": "", "desc": "VANDALISM ($400 OR MORE)", "city": "SndSAN", "council_pop": "142456", "asr_zone": "3", "hour": "21", "segment_id": "38976", "lon": "-117.235377355", "longitude": -117.235377355, "day": "4571", "comm_pop": "39849", "time": "0.875", "latitude": 32.788176319, "lampdist": "3605", "nbrhood": "SanPCF", "type": "VANDALISM", "dow": "6"}}, {"geometry": {"type": "Point", "coordinates": [-117.256427661, 32.7963469248]}, "geomasked_geometry": {"type": "Point", "coordinates": [-117.25635, 32.796220000000005]}, "type": "Feature", "properties": {"week": "27", "gctype": "cns/segment", "address": "700 Block Garnet Avenue", "gcquality": "65", "community": "SanPCF", "month": "7", "lat": "32.7963469248", "is_night": "1", "council": "San002", "year": "2012", "date": "41097", "id": "", "desc": "MINOR POSSESS ALCOHOL", "city": "SndSAN", "council_pop": "142456", "asr_zone": "1", "hour": "21", "segment_id": "30945", "lon": "-117.256427661", "longitude": -117.256427661, "day": "4571", "comm_pop": "39849", "time": "0.878472222222", "latitude": 32.7963469248, "lampdist": "1414", "nbrhood": "SanPCF", "type": "DRUGS/ALCOHOL VIOLATIONS", "dow": "6"}}, {"geometry": {"type": "Point", "coordinates": [-117.251207977, 32.7985029953]}, "geomasked_geometry": {"type": "Point", "coordinates": [-117.25119, 32.798469999999995]}, "type": "Feature", "properties": {"week": "27", "gctype": "cns/segment", "address": "1000 Block Felspar Street", "gcquality": "65", "community": "SanPCF", "month": "7", "lat": "32.7985029953", "is_night": "1", "council": "San002", "year": "2012", "date": "41097", "id": "", "desc": "VEHICLE BREAK-IN/THEFT", "city": "SndSAN", "council_pop": "142456", "asr_zone": "3", "hour": "23", "segment_id": "29046", "lon": "-117.251207977", "longitude": -117.251207977, "day": "4571", "comm_pop": "39849", "time": "0.996527777778", "latitude": 32.7985029953, "lampdist": "7000", "nbrhood": "SanPCF", "type": "VEHICLE BREAK-IN/THEFT", "dow": "6"}}, {"geometry": {"type": "Point", "coordinates": [-117.241493886, 32.7986501121]}, "geomasked_geometry": {"type": "Point", "coordinates": [-117.2415, 32.79864]}, "type": "Feature", "properties": {"week": "27", "gctype": "cns/segment", "address": "1500 Block Hornblend Street", "gcquality": "65", "community": "SanPCF", "month": "7", "lat": "32.7986501121", "is_night": "1", "council": "San002", "year": "2012", "date": "41098", "id": "", "desc": "VEHICLE BREAK-IN/THEFT", "city": "SndSAN", "council_pop": "142456", "asr_zone": "3", "hour": "0", "segment_id": "35992", "lon": "-117.241493886", "longitude": -117.241493886, "day": "4572", "comm_pop": "39849", "time": "0", "latitude": 32.7986501121, "lampdist": "7000", "nbrhood": "SanPCF", "type": "VEHICLE BREAK-IN/THEFT", "dow": "0"}}, {"geometry": {"type": "Point", "coordinates": [-117.234423131, 32.8012023692]}, "geomasked_geometry": {"type": "Point", "coordinates": [-117.23436, 32.80117]}, "type": "Feature", "properties": {"week": "27", "gctype": "cns/segment", "address": "1900 Block Garnet Avenue", "gcquality": "65", "community": "SanPCF", "month": "7", "lat": "32.8012023692", "is_night": "1", "council": "San002", "year": "2012", "date": "41098", "id": "", "desc": "BATTERY WITH SERIOUS BODILY INJURY (F)", "city": "SndSAN", "council_pop": "142456", "asr_zone": "6", "hour": "0", "segment_id": "30961", "lon": "-117.234423131", "longitude": -117.234423131, "day": "4572", "comm_pop": "39849", "time": "0.000694444444444", "latitude": 32.8012023692, "lampdist": "6708", "nbrhood": "SanPCF", "type": "ASSAULT", "dow": "0"}}, {"geometry": {"type": "Point", "coordinates": [-117.244254531, 32.7949460654]}, "geomasked_geometry": {"type": "Point", "coordinates": [-117.24426, 32.794889999999995]}, "type": "Feature", "properties": {"week": "27", "gctype": "cns/segment", "address": "1300 Block Reed Avenue", "gcquality": "65", "community": "SanPCF", "month": "7", "lat": "32.7949460654", "is_night": "1", "council": "San002", "year": "2012", "date": "41098", "id": "", "desc": "PETTY THEFT / THEFT OF PERSONAL PROPERTY / SHOPLIFT", "city": "SndSAN", "council_pop": "142456", "asr_zone": "3", "hour": "0", "segment_id": "54761", "lon": "-117.244254531", "longitude": -117.244254531, "day": "4572", "comm_pop": "39849", "time": "0.0347222222222", "latitude": 32.7949460654, "lampdist": "7000", "nbrhood": "SanPCF", "type": "THEFT/LARCENY", "dow": "0"}}, {"geometry": {"type": "Point", "coordinates": [-117.252751595, 32.7971684212]}, "geomasked_geometry": {"type": "Point", "coordinates": [-117.25286, 32.79718]}, "type": "Feature", "properties": {"week": "27", "gctype": "cns/segment", "address": "900 Block Garnet Avenue", "gcquality": "65", "community": "SanPCF", "month": "7", "lat": "32.7971684212", "is_night": "1", "council": "San002", "year": "2012", "date": "41098", "id": "", "desc": "OPEN CONTAINER IN PUBLIC PARK", "city": "SndSAN", "council_pop": "142456", "asr_zone": "6", "hour": "2", "segment_id": "30947", "lon": "-117.252751595", "longitude": -117.252751595, "day": "4572", "comm_pop": "39849", "time": "0.0868055555556", "latitude": 32.7971684212, "lampdist": "1414", "nbrhood": "SanPCF", "type": "DRUGS/ALCOHOL VIOLATIONS", "dow": "0"}}, {"geometry": {"type": "Point", "coordinates": [-117.245438353, 32.7987773605]}, "geomasked_geometry": {"type": "Point", "coordinates": [-117.24542000000001, 32.79879]}, "type": "Feature", "properties": {"week": "27", "gctype": "cns/segment", "address": "1300 Block Garnet Avenue", "gcquality": "65", "community": "SanPCF", "month": "7", "lat": "32.7987773605", "is_night": "1", "council": "San002", "year": "2012", "date": "41098", "id": "", "desc": "ASSAULT W/DEADLY WEAPON OTHER THAN FIREARM OR GBI FORCE", "city": "SndSAN", "council_pop": "142456", "asr_zone": "6", "hour": "2", "segment_id": "30943", "lon": "-117.245438353", "longitude": -117.245438353, "day": "4572", "comm_pop": "39849", "time": "0.0902777777778", "latitude": 32.7987773605, "lampdist": "1000", "nbrhood": "SanPCF", "type": "ASSAULT", "dow": "0"}}, {"geometry": {"type": "Point", "coordinates": [-117.245733147, 32.7997030379]}, "geomasked_geometry": {"type": "Point", "coordinates": [-117.24565, 32.799640000000004]}, "type": "Feature", "properties": {"week": "27", "gctype": "cns/segment", "address": "1300 Block Felspar Street", "gcquality": "65", "community": "SanPCF", "month": "7", "lat": "32.7997030379", "is_night": "1", "council": "San002", "year": "2012", "date": "41098", "id": "", "desc": "BATTERY W/SERIOUS BODILY INJURY", "city": "SndSAN", "council_pop": "142456", "asr_zone": "3", "hour": "3", "segment_id": "29054", "lon": "-117.245733147", "longitude": -117.245733147, "day": "4572", "comm_pop": "39849", "time": "0.125", "latitude": 32.7997030379, "lampdist": "7071", "nbrhood": "SanPCF", "type": "ASSAULT", "dow": "0"}}, {"geometry": {"type": "Point", "coordinates": [-117.254909713, 32.8106187179]}, "geomasked_geometry": {"type": "Point", "coordinates": [-117.25489, 32.81054]}, "type": "Feature", "properties": {"week": "27", "gctype": "cns/segment", "address": "1000 Block Agate Street", "gcquality": "65", "community": "SanPCF", "month": "7", "lat": "32.8106187179", "is_night": "0", "council": "San002", "year": "2012", "date": "41098", "id": "", "desc": "PETTY THEFT / THEFT OF PERSONAL PROPERTY / SHOPLIFT", "city": "SndSAN", "council_pop": "142456", "asr_zone": "3", "hour": "11", "segment_id": "6797", "lon": "-117.254909713", "longitude": -117.254909713, "day": "4572", "comm_pop": "39849", "time": "0.482638888889", "latitude": 32.8106187179, "lampdist": "8062", "nbrhood": "SanPCF", "type": "THEFT/LARCENY", "dow": "0"}}, {"geometry": {"type": "Point", "coordinates": [-117.255054861, 32.8079040372]}, "geomasked_geometry": {"type": "Point", "coordinates": [-117.25507, 32.807919999999996]}, "type": "Feature", "properties": {"week": "27", "gctype": "cns/segment", "address": "5100 Block Cass Street", "gcquality": "65", "community": "SanPCF", "month": "7", "lat": "32.8079040372", "is_night": "0", "council": "San002", "year": "2012", "date": "41098", "id": "", "desc": "COMMERCIAL BURGLARY", "city": "SndSAN", "council_pop": "142456", "asr_zone": "6", "hour": "15", "segment_id": "16455", "lon": "-117.255054861", "longitude": -117.255054861, "day": "4572", "comm_pop": "39849", "time": "0.625", "latitude": 32.8079040372, "lampdist": "1414", "nbrhood": "SanPCF", "type": "BURGLARY", "dow": "0"}}, {"geometry": {"type": "Point", "coordinates": [-117.25456939, 32.7912030512]}, "geomasked_geometry": {"type": "Point", "coordinates": [-117.25453999999999, 32.79112000000001]}, "type": "Feature", "properties": {"week": "27", "gctype": "cns/segment", "address": "4700 Block Strandway", "gcquality": "49", "community": "SanPCF", "month": "7", "lat": "32.7912030512", "is_night": "0", "council": "San002", "year": "2012", "date": "41098", "id": "", "desc": "OPEN CONTAINER IN PUBLIC PARK", "city": "SndSAN", "council_pop": "142456", "asr_zone": "6", "hour": "16", "segment_id": "59591", "lon": "-117.25456939", "longitude": -117.25456939, "day": "4572", "comm_pop": "39849", "time": "0.668055555556", "latitude": 32.7912030512, "lampdist": "5000", "nbrhood": "SanPCF", "type": "DRUGS/ALCOHOL VIOLATIONS", "dow": "0"}}, {"geometry": {"type": "Point", "coordinates": [-117.253906424, 32.8041238341]}, "geomasked_geometry": {"type": "Point", "coordinates": [-117.25381, 32.804159999999996]}, "type": "Feature", "properties": {"week": "27", "gctype": "cns/segment", "address": "4900 Block Cass Street", "gcquality": "65", "community": "SanPCF", "month": "7", "lat": "32.8041238341", "is_night": "1", "council": "San002", "year": "2012", "date": "41098", "id": "", "desc": "VANDALISM (LESS THAN $400)", "city": "SndSAN", "council_pop": "142456", "asr_zone": "6", "hour": "22", "segment_id": "16434", "lon": "-117.253906424", "longitude": -117.253906424, "day": "4572", "comm_pop": "39849", "time": "0.916666666667", "latitude": 32.8041238341, "lampdist": "1414", "nbrhood": "SanPCF", "type": "VANDALISM", "dow": "0"}}, {"geometry": {"type": "Point", "coordinates": [-117.213951593, 32.8030130322]}, "geomasked_geometry": {"type": "Point", "coordinates": [-117.21395, 32.802989999999994]}, "type": "Feature", "properties": {"week": "27", "gctype": "cns/segment", "address": "3500 Block Del Rey Street", "gcquality": "65", "community": "SanPCF", "month": "7", "lat": "32.8030130322", "is_night": "1", "council": "San002", "year": "2012", "date": "41098", "id": "", "desc": "PETTY THEFT / THEFT OF PERSONAL PROPERTY / SHOPLIFT", "city": "SndSAN", "council_pop": "142456", "asr_zone": "6", "hour": "23", "segment_id": "24124", "lon": "-117.213951593", "longitude": -117.213951593, "day": "4572", "comm_pop": "39849", "time": "0.961805555556", "latitude": 32.8030130322, "lampdist": "8602", "nbrhood": "SanPCF", "type": "THEFT/LARCENY", "dow": "0"}}, {"geometry": {"type": "Point", "coordinates": [-117.235321351, 32.8079595105]}, "geomasked_geometry": {"type": "Point", "coordinates": [-117.23539, 32.80802]}, "type": "Feature", "properties": {"week": "28", "gctype": "cns/segment", "address": "2000 Block Beryl Street", "gcquality": "65", "community": "SanPCF", "month": "7", "lat": "32.8079595105", "is_night": "1", "council": "San002", "year": "2012", "date": "41099", "id": "", "desc": "VEHICLE BREAK-IN/THEFT", "city": "SndSAN", "council_pop": "142456", "asr_zone": "1", "hour": "0", "segment_id": "11738", "lon": "-117.235321351", "longitude": -117.235321351, "day": "4573", "comm_pop": "39849", "time": "0", "latitude": 32.8079595105, "lampdist": "2236", "nbrhood": "SanPCF", "type": "VEHICLE BREAK-IN/THEFT", "dow": "1"}}, {"geometry": {"type": "Point", "coordinates": [-117.245526794, 32.7927620247]}, "geomasked_geometry": {"type": "Point", "coordinates": [-117.24555000000001, 32.79281]}, "type": "Feature", "properties": {"week": "28", "gctype": "cns/segment", "address": "1200 Block Pacific Beach Drive", "gcquality": "65", "community": "SanPCF", "month": "7", "lat": "32.7927620247", "is_night": "0", "council": "San002", "year": "2012", "date": "41099", "id": "", "desc": "VEHICLE BREAK-IN/THEFT", "city": "SndSAN", "council_pop": "142456", "asr_zone": "3", "hour": "6", "segment_id": "309", "lon": "-117.245526794", "longitude": -117.245526794, "day": "4573", "comm_pop": "39849", "time": "0.28125", "latitude": 32.7927620247, "lampdist": "6708", "nbrhood": "SanPCF", "type": "VEHICLE BREAK-IN/THEFT", "dow": "1"}}, {"geometry": {"type": "Point", "coordinates": [-117.238119184, 32.8003922568]}, "geomasked_geometry": {"type": "Point", "coordinates": [-117.23801, 32.80035]}, "type": "Feature", "properties": {"week": "28", "gctype": "cns/segment", "address": "1700 Block Garnet Avenue", "gcquality": "65", "community": "SanPCF", "month": "7", "lat": "32.8003922568", "is_night": "0", "council": "San002", "year": "2012", "date": "41099", "id": "", "desc": "PETTY THEFT / THEFT OF PERSONAL PROPERTY / SHOPLIFT", "city": "SndSAN", "council_pop": "142456", "asr_zone": "6", "hour": "8", "segment_id": "30954", "lon": "-117.238119184", "longitude": -117.238119184, "day": "4573", "comm_pop": "39849", "time": "0.354166666667", "latitude": 32.8003922568, "lampdist": "7071", "nbrhood": "SanPCF", "type": "THEFT/LARCENY", "dow": "1"}}, {"geometry": {"type": "Point", "coordinates": [-117.223482429, 32.8068507821]}, "geomasked_geometry": {"type": "Point", "coordinates": [-117.22345, 32.80685]}, "type": "Feature", "properties": {"week": "28", "gctype": "cns/segment", "address": "2600 Block Pico Place", "gcquality": "65", "community": "SanPCF", "month": "7", "lat": "32.8068507821", "is_night": "0", "council": "San002", "year": "2012", "date": "41099", "id": "", "desc": "VEHICLE BREAK-IN/THEFT", "city": "SndSAN", "council_pop": "142456", "asr_zone": "1", "hour": "12", "segment_id": "52851", "lon": "-117.223482429", "longitude": -117.223482429, "day": "4573", "comm_pop": "39849", "time": "0.5", "latitude": 32.8068507821, "lampdist": "6324", "nbrhood": "SanPCF", "type": "VEHICLE BREAK-IN/THEFT", "dow": "1"}}, {"geometry": {"type": "Point", "coordinates": [-117.255163865, 32.7915417793]}, "geomasked_geometry": {"type": "Point", "coordinates": [-117.25514, 32.79156]}, "type": "Feature", "properties": {"week": "28", "gctype": "cns/segment", "address": "700 Block Oliver Avenue", "gcquality": "65", "community": "SanPCF", "month": "7", "lat": "32.7915417793", "is_night": "0", "council": "San002", "year": "2012", "date": "41099", "id": "", "desc": "FRAUD", "city": "SndSAN", "council_pop": "142456", "asr_zone": "6", "hour": "16", "segment_id": "50385", "lon": "-117.255163865", "longitude": -117.255163865, "day": "4573", "comm_pop": "39849", "time": "0.677083333333", "latitude": 32.7915417793, "lampdist": "3162", "nbrhood": "SanPCF", "type": "FRAUD", "dow": "1"}}, {"geometry": {"type": "Point", "coordinates": [-117.241493886, 32.7986501121]}, "geomasked_geometry": {"type": "Point", "coordinates": [-117.24143000000001, 32.79873]}, "type": "Feature", "properties": {"week": "28", "gctype": "cns/segment", "address": "1500 Block Hornblend Street", "gcquality": "65", "community": "SanPCF", "month": "7", "lat": "32.7986501121", "is_night": "0", "council": "San002", "year": "2012", "date": "41099", "id": "", "desc": "DUI ALCOHOL AND/OR DRUGS", "city": "SndSAN", "council_pop": "142456", "asr_zone": "3", "hour": "17", "segment_id": "35992", "lon": "-117.241493886", "longitude": -117.241493886, "day": "4573", "comm_pop": "39849", "time": "0.717361111111", "latitude": 32.7986501121, "lampdist": "7000", "nbrhood": "SanPCF", "type": "DUI", "dow": "1"}}, {"geometry": {"type": "Point", "coordinates": [-117.245356407, 32.7922850239]}, "geomasked_geometry": {"type": "Point", "coordinates": [-117.24547, 32.792339999999996]}, "type": "Feature", "properties": {"week": "28", "gctype": "cns/segment", "address": "1200 Block Parker Place", "gcquality": "65", "community": "SanPCF", "month": "7", "lat": "32.7922850239", "is_night": "0", "council": "San002", "year": "2012", "date": "41099", "id": "", "desc": "VANDALISM (LESS THAN $400)", "city": "SndSAN", "council_pop": "142456", "asr_zone": "1", "hour": "20", "segment_id": "52098", "lon": "-117.245356407", "longitude": -117.245356407, "day": "4573", "comm_pop": "39849", "time": "0.833333333333", "latitude": 32.7922850239, "lampdist": "4472", "nbrhood": "SanPCF", "type": "VANDALISM", "dow": "1"}}, {"geometry": {"type": "Point", "coordinates": [-117.223482429, 32.8068507821]}, "geomasked_geometry": {"type": "Point", "coordinates": [-117.22359, 32.80699]}, "type": "Feature", "properties": {"week": "28", "gctype": "cns/segment", "address": "2600 Block Pico Place", "gcquality": "65", "community": "SanPCF", "month": "7", "lat": "32.8068507821", "is_night": "0", "council": "San002", "year": "2012", "date": "41099", "id": "", "desc": "VEHICLE BREAK-IN/THEFT", "city": "SndSAN", "council_pop": "142456", "asr_zone": "1", "hour": "20", "segment_id": "52851", "lon": "-117.223482429", "longitude": -117.223482429, "day": "4573", "comm_pop": "39849", "time": "0.851388888889", "latitude": 32.8068507821, "lampdist": "6324", "nbrhood": "SanPCF", "type": "VEHICLE BREAK-IN/THEFT", "dow": "1"}}, {"geometry": {"type": "Point", "coordinates": [-117.250417009, 32.8086570152]}, "geomasked_geometry": {"type": "Point", "coordinates": [-117.25033, 32.80877]}, "type": "Feature", "properties": {"week": "28", "gctype": "cns/segment", "address": "1200 Block Tourmaline Street", "gcquality": "65", "community": "SanPCF", "month": "7", "lat": "32.8086570152", "is_night": "1", "council": "San002", "year": "2012", "date": "41099", "id": "", "desc": "PETTY THEFT / THEFT OF PERSONAL PROPERTY / SHOPLIFT", "city": "SndSAN", "council_pop": "142456", "asr_zone": "1", "hour": "22", "segment_id": "61276", "lon": "-117.250417009", "longitude": -117.250417009, "day": "4573", "comm_pop": "39849", "time": "0.9375", "latitude": 32.8086570152, "lampdist": "8000", "nbrhood": "SanPCF", "type": "THEFT/LARCENY", "dow": "1"}}, {"geometry": {"type": "Point", "coordinates": [-117.222112679, 32.8043851476]}, "geomasked_geometry": {"type": "Point", "coordinates": [-117.22203999999999, 32.80449]}, "type": "Feature", "properties": {"week": "28", "gctype": "cns/segment", "address": "2600 Block Figueroa Boulevard", "gcquality": "65", "community": "SanPCF", "month": "7", "lat": "32.8043851476", "is_night": "1", "council": "San002", "year": "2012", "date": "41099", "id": "", "desc": "TAKE VEHICLE W/O OWNER'S CONSENT/VEHICLE THEFT", "city": "SndSAN", "council_pop": "142456", "asr_zone": "3", "hour": "23", "segment_id": "29278", "lon": "-117.222112679", "longitude": -117.222112679, "day": "4573", "comm_pop": "39849", "time": "0.979166666667", "latitude": 32.8043851476, "lampdist": "6082", "nbrhood": "SanPCF", "type": "MOTOR VEHICLE THEFT", "dow": "1"}}, {"geometry": {"type": "Point", "coordinates": [-117.254577468, 32.7967605349]}, "geomasked_geometry": {"type": "Point", "coordinates": [-117.25457999999999, 32.79685]}, "type": "Feature", "properties": {"week": "28", "gctype": "cns/segment", "address": "800 Block Garnet Avenue", "gcquality": "65", "community": "SanPCF", "month": "7", "lat": "32.7967605349", "is_night": "1", "council": "San002", "year": "2012", "date": "41100", "id": "", "desc": "DUI ALCOHOL AND/OR DRUGS", "city": "SndSAN", "council_pop": "142456", "asr_zone": "6", "hour": "1", "segment_id": "30948", "lon": "-117.254577468", "longitude": -117.254577468, "day": "4574", "comm_pop": "39849", "time": "0.0527777777778", "latitude": 32.7967605349, "lampdist": "2236", "nbrhood": "SanPCF", "type": "DUI", "dow": "2"}}, {"geometry": {"type": "Point", "coordinates": [-117.23379972, 32.7924463837]}, "geomasked_geometry": {"type": "Point", "coordinates": [-117.23376, 32.79242]}, "type": "Feature", "properties": {"week": "28", "gctype": "cns/segment", "address": "3900 Block Sequoia Street", "gcquality": "65", "community": "SanPCF", "month": "7", "lat": "32.7924463837", "is_night": "1", "council": "San002", "year": "2012", "date": "41100", "id": "", "desc": "VEHICLE BREAK-IN/THEFT", "city": "SndSAN", "council_pop": "142456", "asr_zone": "3", "hour": "2", "segment_id": "57665", "lon": "-117.23379972", "longitude": -117.23379972, "day": "4574", "comm_pop": "39849", "time": "0.0833333333333", "latitude": 32.7924463837, "lampdist": "8544", "nbrhood": "SanPCF", "type": "VEHICLE BREAK-IN/THEFT", "dow": "2"}}, {"geometry": {"type": "Point", "coordinates": [-117.254577468, 32.7967605349]}, "geomasked_geometry": {"type": "Point", "coordinates": [-117.25453999999999, 32.796769999999995]}, "type": "Feature", "properties": {"week": "28", "gctype": "cns/segment", "address": "800 Block Garnet Avenue", "gcquality": "65", "community": "SanPCF", "month": "7", "lat": "32.7967605349", "is_night": "1", "council": "San002", "year": "2012", "date": "41100", "id": "", "desc": "VEHICLE BREAK-IN/THEFT", "city": "SndSAN", "council_pop": "142456", "asr_zone": "6", "hour": "2", "segment_id": "30948", "lon": "-117.254577468", "longitude": -117.254577468, "day": "4574", "comm_pop": "39849", "time": "0.0972222222222", "latitude": 32.7967605349, "lampdist": "2236", "nbrhood": "SanPCF", "type": "VEHICLE BREAK-IN/THEFT", "dow": "2"}}, {"geometry": {"type": "Point", "coordinates": [-117.255841395, 32.7977273476]}, "geomasked_geometry": {"type": "Point", "coordinates": [-117.25587999999999, 32.797689999999996]}, "type": "Feature", "properties": {"week": "28", "gctype": "cns/segment", "address": "4600 Block Mission Boulevard", "gcquality": "65", "community": "SanPCF", "month": "7", "lat": "32.7977273476", "is_night": "0", "council": "San002", "year": "2012", "date": "41100", "id": "", "desc": "PETTY THEFT", "city": "SndSAN", "council_pop": "142456", "asr_zone": "6", "hour": "11", "segment_id": "46524", "lon": "-117.255841395", "longitude": -117.255841395, "day": "4574", "comm_pop": "39849", "time": "0.486111111111", "latitude": 32.7977273476, "lampdist": "2236", "nbrhood": "SanPCF", "type": "THEFT/LARCENY", "dow": "2"}}, {"geometry": {"type": "Point", "coordinates": [-117.244254531, 32.7949460654]}, "geomasked_geometry": {"type": "Point", "coordinates": [-117.24428999999999, 32.79485]}, "type": "Feature", "properties": {"week": "28", "gctype": "cns/segment", "address": "1300 Block Reed Avenue", "gcquality": "65", "community": "SanPCF", "month": "7", "lat": "32.7949460654", "is_night": "1", "council": "San002", "year": "2012", "date": "41100", "id": "", "desc": "VEHICLE BREAK-IN/THEFT", "city": "SndSAN", "council_pop": "142456", "asr_zone": "3", "hour": "21", "segment_id": "54761", "lon": "-117.244254531", "longitude": -117.244254531, "day": "4574", "comm_pop": "39849", "time": "0.885416666667", "latitude": 32.7949460654, "lampdist": "7000", "nbrhood": "SanPCF", "type": "VEHICLE BREAK-IN/THEFT", "dow": "2"}}, {"geometry": {"type": "Point", "coordinates": [-117.22959393, 32.7981610511]}, "geomasked_geometry": {"type": "Point", "coordinates": [-117.22958, 32.798120000000004]},